구분,화장실명,소재지도로명주소,소재지지번주소,남녀공용화장실여부,남성용-대변기수,남성용-소변기수,남성용-장애인용대변기수,남성용-장애인용소변기수,남성용-어린이용대변기수,남성용-어린이용소변기수,여성용-대변기수,여성용-장애인용대변기수,여성용-어린이용대변기수,관리기관명,전화번호,개방시간,설치연월,위도,경도,화장실소유구분,화장실설치장소유형,오물처리방식,비상벨설치여부,비상벨설치장소,화장실여부,설치여부,기저귀교환대장소,리모델링연월,데이터기준일자
공중화장실,진원프라자,경기도 고양시 일산동구 정발산로 27,"경기도 고양시 일산동구 정발산로 27 (장항동, 진원프라자)",N,2,3,0,0,0,0,2,0,0,일산동구청 환경녹지과 청소행정팀,031-8075-6243,:~:,,37.6569377884,126.7718356549,N,N,N,N,N,N,N,N,,2022-04-08
공중화장실,웨스턴돔 타워,,"경기도 고양시 일산동구 정발산로 24 (장항동, 웨스턴돔1)",N,1,2,1,0,0,0,2,1,0,일산동구청 환경녹지과,031-8075-6243,00:00~24:00,,37.6558930852,126.7719705633,N,N,N,N,N,N,N,N,,2022-04-08
공중화장실,호수빌딩,경기도 고양시 일산동구 정발산로 23,"경기도 고양시 일산동구 정발산로 23 (장항동, 호수빌딩)",N,13,18,0,0,0,0,14,0,0,일산동구청 환경녹지과,031-8075-6243,:~:,,37.6567272061,126.7713048729,N,N,N,N,N,N,N,N,,2022-04-08
공중화장실,지평프라자,,"경기도 고양시 일산동구 정발산로 19 (장항동, 지평프라자)",N,11,11,0,0,0,0,28,0,0,일산동구청 환경녹지과 청소행정팀,031-8075-6243,:~:,,37.6567230023,126.7706246946,N,N,N,N,N,N,N,N,,2022-04-08
공중화장실,일호골든타워,,"경기도 고양시 일산동구 정발산로 11 (장항동, 일호골든타워)",N,7,7,0,0,0,0,7,0,0,일산동구청 환경녹지과,031-8075-6243,:~:,,37.6565580392,126.7701841668,N,N,N,N,N,N,N,N,,2022-04-08
공중화장실,한경(알파휘트니스센터),경기도 고양시 일산동구 장백로 86,"경기도 고양시 일산동구 장백로 86 (백석동, 한경빌딩)",N,2,2,0,0,0,0,2,0,0,일산동구청 환경녹지과 청소행정팀,031-8075-6243,:~:,,37.6447479877,126.7844573683,N,N,N,N,N,N,N,N,,2022-04-08
공중화장실,크리스탈빌딩 백석동,경기도 고양시 일산동구 장백로 56,"경기도 고양시 일산동구 장백로 56 (백석동, 크리스탈빌딩)",N,10,24,0,0,0,0,20,0,0,일산동구청 환경녹지과,031-8075-6243,:~:,,37.6429685219,126.7867980942,N,N,N,N,N,N,N,N,,2022-04-08
공중화장실,코스트코 일산점 2층,경기도 고양시 일산동구 장백로 25,"경기도 고양시 일산동구 장백로 25 (백석동, 코스트코 일산점)",N,7,12,0,0,0,0,19,0,0,일산동구 환경녹지과,031-8075-6243,10:00~22:00,,37.6405441824,126.7883287660,N,N,N,N,N,N,N,N,,2022-04-08
공중화장실,코스트코 일산점 1층,경기도 고양시 일산동구 장백로 25,"경기도 고양시 일산동구 장백로 25 (백석동, 코스트코 일산점)",N,7,12,0,0,0,0,19,0,0,일산동구 환경녹지과,031-8075-6243,10:00~22:00,,37.6405441824,126.7883287660,N,N,N,N,N,N,N,N,,2022-04-08
공중화장실,이지로 빌딩,경기도 고양시 일산동구 장백로 206,"경기도 고양시 일산동구 장백로 206 (장항동, 이지로빌딩)",N,16,16,0,0,0,0,16,0,0,일산동구청 환경녹지과 청소행정팀,031-8075-6243,:~:,,37.6530432874,126.7761021764,N,N,N,N,N,N,N,N,,2022-04-08
공중화장실,백석레저타운,경기도 고양시 일산동구 일산로 46,경기도 고양시 일산동구 일산로 46 (일산동),N,12,29,0,0,0,0,23,0,0,일산동구청 환경녹지과 청소행정팀,031-8075-6243,:~:,,37.6423442708,126.7879035396,N,N,N,N,N,N,N,N,,2022-04-08
공중화장실,남정씨티프라자 3차,경기도 고양시 일산동구 일산로 46,"경기도 고양시 일산동구 일산로 46 (백석동, 남정씨티프라자)",N,6,5,0,0,0,0,5,0,0,일산동구청 환경녹지과 청소행정팀,031-8075-6243,00:00~00:00,,37.6423442708,126.7879035396,N,N,N,N,N,N,N,N,,2022-04-08
공중화장실,효성레저스 오피스텔,,"경기도 고양시 일산동구 일산로 30 (백석동, 효성레제스오피스텔)",N,2,2,0,0,0,0,2,0,0,일산동구청 환경녹지과 청소행정팀,031-8075-6243,:~:,,37.6414450932,126.7867673205,N,N,N,N,N,N,N,N,,2022-04-08
공중화장실,현대오일뱅크,경기도 고양시 일산동구 일산로 144,"경기도 고양시 일산동구 일산로 144 (백석동, 백석동주유소)",N,1,2,0,0,0,0,1,0,0,일산동구청 환경녹지과 청소행정팀,031-8075-6243,:~:,,37.6497486033,126.7931380660,N,N,N,N,N,N,N,N,,2022-04-08
공중화장실,중산실내수영장2,경기도 고양시 일산동구 약산길 2,"경기도 고양시 일산동구 약산길 2 (중산동, 부성빌딩)",N,0,2,0,0,0,0,2,0,0,일산동구 환경녹지과,031-8075-6243,:~:,,37.6792718480,126.7924497740,N,N,N,N,N,N,N,N,,2022-04-08
공중화장실,스타 골프클럽,경기도 고양시 일산동구 애니골길43번길 67,경기도 고양시 일산동구 애니골길43번길 67 (풍동),N,1,1,0,0,0,0,2,0,0,일산동구청 환경녹지과 청소행정팀,031-8075-6243,:~:,,37.6728570071,126.7883831282,N,N,N,N,N,N,N,N,,2022-04-08
공중화장실,타워빌딩,경기도 고양시 일산동구 애니골길 14-23,경기도 고양시 일산동구 애니골길 14-23 (풍동),N,8,12,0,0,0,0,10,0,0,일산동구청 환경녹지과 청소행정팀,031-8075-6243,:~:,,37.6685579406,126.7914176241,N,N,N,N,N,N,N,N,,2022-04-08
공중화장실,중앙프라자 B동,,"경기도 고양시 일산동구 숲속마을로 50-76 (풍동, 중앙프라자)",N,6,6,0,0,0,0,6,0,0,일산동구청 환경녹지과 청소행정팀,031-8075-6243,:~:,,37.6677543174,126.7987160382,N,N,N,N,N,N,N,N,,2022-04-08
공중화장실,영진프라자,경기도 고양시 일산동구 숲속마을로 50-70,"경기도 고양시 일산동구 숲속마을로 50-70 (풍동, 영진프라자)",N,6,12,0,0,0,0,11,0,0,일산동구청 환경녹지과,031-8075-6243,:~:,,37.6677295707,126.7991017863,N,N,N,N,N,N,N,N,,2022-04-08
공중화장실,세훈프라자,경기도 고양시 일산동구 숲속마을로 50-54,"경기도 고양시 일산동구 숲속마을로 50-54 (풍동, 세훈프라자)",N,4,4,0,0,0,0,6,0,0,일산동구청 환경녹지과,031-8075-6243,:~:,,37.6678937533,126.7994290647,N,N,N,N,N,N,N,N,,2022-04-08
공중화장실,중앙프라자 A동,,"경기도 고양시 일산동구 숲속마을로 50-38 (풍동, 중앙프라자)",N,5,12,0,0,0,0,7,0,0,일산동구청 환경녹지과 청소행정팀,031-8075-6243,:~:,,37.6679347069,126.7987370182,N,N,N,N,N,N,N,N,,2022-04-08
공중화장실,풍동미래타워,경기도 고양시 일산동구 숲속마을로 44,"경기도 고양시 일산동구 숲속마을로 44 (풍동, 풍동 미래타워)",N,6,8,0,0,0,0,14,0,0,일산동구청 환경녹지과 청소행정팀,031-8075-6243,:~:,,37.6674090687,126.7982544029,N,N,N,N,N,N,N,N,,2022-04-08
공중화장실,풍동프라자,경기도 고양시 일산동구 숲속마을로 26,"경기도 고양시 일산동구 숲속마을로 26 (풍동, 풍동프라자)",N,12,13,0,0,0,0,14,0,0,일산동구청 환경녹지과 청소행정팀,031-8075-6243,:~:,,37.6673408186,126.8004207226,N,N,N,N,N,N,N,N,,2022-04-08
공중화장실,진넥스,경기도 고양시 일산동구 숲속마을로 22,"경기도 고양시 일산동구 숲속마을로 22 (풍동, 진넥스 블루오션)",N,12,18,0,0,0,0,15,0,0,일산동구청 환경녹지과 청소행정팀,031-8075-6243,:~:,,37.6673158646,126.8007724540,N,N,N,N,N,N,N,N,,2022-04-08
공중화장실,대한골프클럽,경기도 고양시 일산동구 성현로659번길 224,경기도 고양시 일산동구 성현로659번길 224 (사리현동),N,14,27,0,0,0,0,24,0,0,일산동구청 환경녹지과 청소행정팀,031-8075-6243,:~:,,37.6959366456,126.8453993062,N,N,N,N,N,N,N,N,,2022-04-08
공중화장실,클린파크주유소,경기도 고양시 일산동구 성현로 78,"경기도 고양시 일산동구 성현로 78 (성석동, 클린파크주유소)",N,1,1,0,0,0,0,1,0,0,일산동구청 환경녹지과 청소행정팀,031-8075-6243,:~:,,37.7068840426,126.7947512307,N,N,N,N,N,N,N,N,,2022-04-08
공중화장실,진 골프장,경기도 고양시 일산동구 성현로 495,경기도 고양시 일산동구 성현로 495 (사리현동),N,7,7,0,0,0,0,8,0,0,일산동구청 환경녹지과 청소행정팀,031-8075-6243,:~:,,37.6981004922,126.8374512910,N,N,N,N,N,N,N,N,,2022-04-08
공중화장실,진골프클럽,경기도 고양시 일산동구 성현로 495,경기도 고양시 일산동구 성현로 495 (사리현동),N,12,16,0,0,0,0,17,0,0,일산동구청 환경녹지과 청소행정팀,031-8075-6243,:~:,,37.6981004922,126.8374512910,N,N,N,N,N,N,N,N,,2022-04-08
공중화장실,동일산주유소,경기도 고양시 일산동구 성현로 469,"경기도 고양시 일산동구 성현로 469 (사리현동, 동일산주유소)",N,3,3,0,0,0,0,3,0,0,일산동구청 환경녹지과,031-8075-6043,:~:,,37.6983359855,126.8344545468,N,N,N,N,N,N,N,N,,2022-04-08
공중화장실,영 에버 골프연습장,경기도 고양시 일산동구 성석로 62,"경기도 고양시 일산동구 성석로 62 (중산동, 영 에버 골프연습장)",N,3,5,0,0,0,0,4,0,0,일산동구청 환경녹지과 청소행정팀,031-8075-6243,:~:,,37.6849347479,126.7928836576,N,N,N,N,N,N,N,N,,2022-04-08
공중화장실,양우드라마시티,,"경기도 고양시 일산동구 백마로213번길 36 (장항동, 양우드라마시티)",N,2,2,0,0,0,0,1,0,0,일산동구청 환경녹지과 청소행정팀,031-8075-6243,:~:,,37.6559911114,126.7732506735,N,N,N,N,N,N,N,N,,2022-04-08
공중화장실,청용오일뱅크,경기도 고양시 일산동구 백마로 590,경기도 고양시 일산동구 백마로 590 (식사동),N,1,2,0,0,0,0,1,0,0,일산동구청 환경녹지과,031-8075-6243,:~:,,37.6659026306,126.8133600082,N,N,N,N,N,N,N,N,,2022-04-08
공중화장실,풍림주유소,경기도 고양시 일산동구 백마로 522,경기도 고양시 일산동구 백마로 522 (풍동),N,2,2,0,0,0,0,2,0,0,일산동구청 환경녹지과 청소행정팀,031-8075-6243,:~:,,37.6632810506,126.8058783941,N,N,N,N,N,N,N,N,,2022-04-08
공중화장실,현대 에뜨레보,,"경기도 고양시 일산동구 백마로 223 (장항동, 현대 에뜨레보)",N,14,11,0,0,0,0,10,0,0,일산동구청 환경녹지과 청소행정팀,031-8075-6243,:~:,,37.6550432318,126.7744729433,N,N,N,N,N,N,N,N,,2022-04-08
공중화장실,내리문화공원(주차장),경기도 평택시 팽성읍 내리길 64-23,경기도 평택시 팽성읍 내리 산3-3,N,2,3,1,1,0,0,5,1,0,평택시 공원과,,24시간,,36.9752514145,127.0325552811,N,N,N,N,N,N,N,N,,2021-12-31
공중화장실,내트럭㈜평택사업소,경기도 평택시 포승읍 하만호길 229,경기도 평택시 포승읍 하만호길 229,N,3,4,0,0,0,0,3,0,0,내트럭㈜평택사업소,,24시간,,36.9543637942,126.8502396842,N,N,N,N,N,N,N,N,,2021-12-31
공중화장실,노래하는분수대,경기도 고양시 일산동구 호수로 595,경기도 고양시 일산동구 호수로 595,N,4,14,1,1,0,0,16,1,2,고양도시관리공사,031-924-5822,24시간,,37.6537546960,126.7686925095,N,N,N,N,N,N,N,N,,2022-04-08
공중화장실,일산소방서,경기도 고양시 일산동구 중앙로 1325,경기도 고양시 일산동구 중앙로 1325,N,6,10,3,1,0,0,2,3,0,일산소방서,,24시간,,37.6632693342,126.7696082525,N,N,N,N,N,N,N,N,,2022-04-08
공중화장실,노와이주단지 체육공원,경기도 평택시 팽성읍 대추안길 5-1,경기도 평택시 팽성읍 노와리 456,N,1,2,0,0,0,0,3,0,0,평택시 공원과,,24시간,,36.9469870277,127.0899729083,N,N,N,N,N,N,N,N,,2021-12-31
공중화장실,백마역,경기도 고양시 일산동구 경의로 318,"경기도 고양시 일산동구 경의로 318 (백석동, 백마역)",N,4,8,1,0,0,0,12,1,0,한국철도공사,,05:00~00:00,,37.6584091855,126.7944504435,N,N,N,N,N,N,N,N,,2022-04-08
공중화장실,풍산역,경기도 고양시 일산동구 경의로 486,"경기도 고양시 일산동구 경의로 486 (풍동, 풍산역)",N,4,8,1,0,0,1,12,1,0,한국철도공사,,05:00~00:00,,37.6723046673,126.7864720493,N,N,N,N,N,N,N,N,,2022-04-08
공중화장실,백석역,경기도 고양시 일산동구 중앙로 지하 1042,"경기도 고양시 일산동구 중앙로 지하 1042 (백석동, 백석역)",N,4,4,1,1,0,1,8,1,1,한국철도공사,,05:00~00:00,,37.6431570600,126.7881678191,N,N,N,N,N,N,N,N,,2022-04-08
공중화장실,마두역,,"경기도 고양시 일산동구 지하 1180 (마두동, 마두역)",N,3,4,1,1,0,1,7,1,1,한국철도공사,,05:00~00:00,,,,N,N,N,N,N,N,N,N,,2022-04-08
공중화장실,일산동구청 1층 화장실,경기도 고양시 일산동구 중앙로 1256,"경기도 고양시 일산동구 중앙로 1256(마두동), 1층",N,3,4,1,1,0,0,4,1,0,일산동구청 자치행정과,031-8075-6044,24시간,,37.6588678240,126.7749572412,N,N,N,N,N,N,N,N,,2022-04-08
공중화장실,일산동구청 2층 화장실-1,경기도 고양시 일산동구 중앙로 1256,"경기도 고양시 일산동구 중앙로 1256(마두동) , 2층",N,2,4,1,0,0,0,4,0,0,일산동구청 자치행정과,031-8075-6044,09시~18시,,37.6588678240,126.7749572412,N,N,N,N,N,N,N,N,,2022-04-08
공중화장실,일산동구청 2층 화장실-2,경기도 고양시 일산동구 중앙로 1256,"경기도 고양시 일산동구 중앙로 1256(마두동), 2층 소회의실 앞",N,4,4,0,1,0,0,4,1,0,일산동구청 자치행정과,031-8075-6044,09시~18시,,37.6588678240,126.7749572412,N,N,N,N,N,N,N,N,,2022-04-08
공중화장실,농성 근린공원,경기도 평택시 팽성읍 신흥북로49번길 50,경기도 평택시 팽성읍 안정리 78-30,N,3,4,1,1,0,0,3,1,0,평택시 공원과,,24시간,,36.9645636142,127.0450001302,N,N,N,N,N,N,N,N,,2021-12-31
공중화장실,농업기술센터,경기도 평택시 오성면 청오로 33-58,경기도 평택시 오성면 청오로 33-58,N,1,1,1,1,0,0,2,1,0,평택시 농업기술센터,,9시간,,37.0143930396,126.9808207215,N,N,N,N,N,N,N,N,,2021-12-31
공중화장실,일산동구청 4층 화장실,경기도 고양시 일산동구 중앙로 1256,"경기도 고양시 일산동구 중앙로 1256(마두동), 4층",N,3,4,0,0,0,0,4,0,0,일산동구청 자치행정과,031-8075-6044,09시~18시,,37.6588678240,126.7749572412,N,N,N,N,N,N,N,N,,2022-04-08
공중화장실,식사동행정복지센터 지하1층 화장실,경기도 고양시 일산동구 위시티2로11번길 22-21,"경기도 고양시 일산동구 위시티2로11번길 22-21 (식사동, 식사동주민센터), 지하1층",N,1,1,0,1,0,0,1,0,0,일산동구 식사동 행정복지센터,031-8075-6709,09시~18시,,37.6773424570,126.8137081946,N,N,N,N,N,N,N,N,,2022-04-08
공중화장실,농업기술센터,경기도 평택시 오성면 청오로 33-58,경기도 평택시 오성면 청오로 33-58,N,3,3,1,1,0,1,8,1,0,평택시 농업기술센터,,9시간,,37.0143930396,126.9808207215,N,N,N,N,N,N,N,N,,2021-12-31
공중화장실,농업기술센터,경기도 평택시 오성면 청오로 33-58,경기도 평택시 오성면 청오로 33-58,N,3,2,0,0,0,0,7,0,0,평택시 농업기술센터,,9시간,,37.0143930396,126.9808207215,N,N,N,N,N,N,N,N,,2021-12-31
공중화장실,일산방송COMPLEX,,"경기도 고양시 일산동구 백마로 195 (장항동, 에스케이엠시티오피스텔)",N,24,46,0,0,0,0,41,0,0,일산동구청 환경녹지과,031-8075-6243,:~:,,37.6542260855,126.7720435229,N,N,N,N,N,N,N,N,,2022-04-08
공중화장실,SK엠시티드라마파크빙상장,,"경기도 고양시 일산동구 백마로 195 (장항동, 에스케이엠시티오피스텔)",N,6,11,0,0,0,0,9,0,0,일산동구청 환경녹지과 청소행정팀,031-8075-6243,:~:,,37.6542260855,126.7720435229,N,N,N,N,N,N,N,N,,2022-04-08
공중화장실,호수공원주유소,경기도 고양시 일산동구 백마로 108,"경기도 고양시 일산동구 백마로 108 (장항동, 호수공원주유소)",N,2,1,0,0,0,0,2,0,0,일산동구청 환경녹지과 청소행정팀,031-8075-6243,:~:,,37.6479025631,126.7653832095,N,N,N,N,N,N,N,N,,2022-04-08
공중화장실,호수그린,,"경기도 고양시 일산동구 무궁화로 8-38 (장항동, 호수그린오피스텔)",N,5,6,0,0,0,0,5,0,0,일산동구청 환경녹지과 청소행정팀,031-8075-6243,00:00~00:00,,37.6598178476,126.7667963674,N,N,N,N,N,N,N,N,,2022-04-08
공중화장실,우인 2차,,"경기도 고양시 일산동구 무궁화로 7-63 (장항동, 우인아크리움빌II)",N,2,2,0,0,0,0,2,0,0,일산동구청 환경녹지과 청소행정팀,031-8075-6243,:~:,,37.6637976898,126.7647050317,N,N,N,N,N,N,N,N,,2022-04-08
공중화장실,성우골프클럽,,"경기도 고양시 일산동구 무궁화로 43-55 (장항동, 성우사카르타워)",N,2,3,0,0,0,0,4,0,0,일산동구청 환경녹지과 청소행정팀,031-8075-6243,:~:,,37.6644878245,126.7669771954,N,N,N,N,N,N,N,N,,2022-04-08
공중화장실,성우사카르타워,,"경기도 고양시 일산동구 무궁화로 43-55 (장항동, 성우사카르타워)",N,16,16,0,0,0,0,32,0,0,일산동구청 환경녹지과 청소행정팀,031-8075-6243,:~:,,37.6644878245,126.7669771954,N,N,N,N,N,N,N,N,,2022-04-08
공중화장실,동하넥서스,,"경기도 고양시 일산동구 무궁화로 43-33 (장항동, 동하넥서스빌)",N,21,21,0,0,0,0,21,0,0,일산동구청 환경녹지과 청소행정팀,031-8075-6043,:~:,,37.6646431533,126.7673158136,N,N,N,N,N,N,N,N,,2022-04-08
공중화장실,한강세이프빌,,"경기도 고양시 일산동구 무궁화로 43-15 (장항동, 한강세이프빌)",N,6,12,0,0,0,0,10,0,0,일산동구청 환경녹지과 청소행정팀,031-8075-6243,:~:,,37.6637815970,126.7679138617,N,N,N,N,N,N,N,N,,2022-04-08
공중화장실,우림보보카운티 1차,경기도 고양시 일산동구 무궁화로 40,"경기도 고양시 일산동구 무궁화로 40 (장항동, 일산 우림보보카운티1)",N,1,1,0,0,0,0,3,0,0,일산동구 환경녹지과,031-8075-6243,:~:,,37.6628857440,126.7687956805,N,N,N,N,N,N,N,N,,2022-04-08
공중화장실,우림보보카운티 2차,,"경기도 고양시 일산동구 무궁화로 32-23 (장항동, 우림보보카운티)",N,2,2,1,0,0,0,2,0,0,일산동구청 환경녹지과,031-8075-6243,00:00~00:00,,37.6618422403,126.7691233739,N,N,N,N,N,N,N,N,,2022-04-08
공중화장실,라페스타 쇼핑몰 E,경기도 고양시 일산동구 무궁화로 32-12,"경기도 고양시 일산동구 무궁화로 32-12 (장항동, 라페스타 E)",N,3,3,0,0,0,0,3,0,0,일산동구청 환경녹지과 청소행정팀,031-8075-6243,00:00~00:00,,37.6621060125,126.7680550338,N,N,N,N,N,N,N,N,,2022-04-08
공중화장실,엔담프라자,경기도 고양시 일산동구 무궁화로 31-17,"경기도 고양시 일산동구 무궁화로 31-17 (장항동, 엔담프라자)",N,10,14,0,0,0,0,14,0,0,일산동구청 환경녹지과,031-8075-6243,:~:,,37.6632258384,126.7669555920,N,N,N,N,N,N,N,N,,2022-04-08
공중화장실,이마트(풍산역),경기도 고양시 일산동구 무궁화로 237,경기도 고양시 일산동구 무궁화로 237 (중산동),N,14,27,0,0,0,0,24,0,0,일산동구청 환경녹지과 청소행정팀,031-8075-6243,10:00~23:00,,37.6738948112,126.7871031801,N,N,N,N,N,N,N,N,,2022-04-08
공중화장실,하임빌 로데오빌딩,,"경기도 고양시 일산동구 무궁화로 20-18 (장항동, 하임빌로데오빌딩)",N,14,15,0,0,0,0,15,0,0,일산동구청 환경녹지과 청소행정팀,031-8075-6243,:~:,,37.6613171228,126.7672918171,N,N,N,N,N,N,N,N,,2022-04-08
공중화장실,한라밀라트A동,,"경기도 고양시 일산동구 무궁화로 17 (장항동, 한라밀라트)",N,2,4,0,0,0,0,5,0,0,일산동구청 환경녹지과 청소행정팀,031-8075-6243,:~:,,37.6621949394,126.7664101767,N,N,N,N,N,N,N,N,,2022-04-08
공중화장실,더불어충전소,경기도 고양시 일산동구 고봉로 672,"경기도 고양시 일산동구 고봉로 672 (성석동, 성석동더불어가스충전소)",N,2,2,0,0,0,0,3,0,0,일산동구청 환경녹지과 청소행정팀,031-8075-6043,:~:,,37.7167477805,126.7893023556,N,N,N,N,N,N,N,N,,2022-04-08
공중화장실,(주)중산힐스(청소년수련관),경기도 고양시 일산동구 고봉로 467-68,경기도 고양시 일산동구 고봉로 467-68 (성석동),N,9,17,0,0,0,0,14,0,0,일산동구청 환경녹지과 청소행정팀,031-8075-6243,:~:,,37.7008161265,126.7780313719,N,N,N,N,N,N,N,N,,2022-04-08
공중화장실,(주)중산힐스(골프연습장),경기도 고양시 일산동구 고봉로 467-57,경기도 고양시 일산동구 고봉로 467-57 (성석동),N,12,29,0,0,0,0,23,0,0,일산동구청 환경녹지과 청소행정팀,031-8075-6243,:~:,,37.7004702556,126.7789535625,N,N,N,N,N,N,N,N,,2022-04-08
공중화장실,라페스타 쇼핑몰 C1,경기도 고양시 일산동구 무궁화로 32-34,"경기도 고양시 일산동구 무궁화로 32-34 (장항동, 라페스타C)",N,3,7,0,0,0,0,5,0,0,일산동구 환경녹지과,031-8075-6243,:~:,,37.6613265499,126.7688109747,N,N,N,N,N,N,N,N,,2022-04-08
공중화장실,정안프라자,경기도 고양시 일산동구 고봉로 32-36,"경기도 고양시 일산동구 고봉로 32-36 (장항동, 정안프라자)",N,8,13,0,0,0,0,14,0,0,일산동구청 환경녹지과 청소행정팀,031-8075-6243,:~:,,37.6635393793,126.7666463819,N,N,N,N,N,N,N,N,,2022-04-08
공중화장실,한라밀라트 C동,,"경기도 고양시 일산동구 무궁화로 12 (장항동, 한라밀라트)",N,1,1,0,0,0,0,1,0,0,일산동구청 환경녹지과 청소행정팀,031-8075-6243,:~:,,37.6614107659,126.7664065560,N,N,N,N,N,N,N,N,,2022-04-08
공중화장실,한라밀라트B동,,"경기도 고양시 일산동구 무궁화로 11 (장항동, 한라밀라트)",N,1,1,0,0,0,0,1,0,0,일산동구청 환경녹지과 청소행정팀,031-8075-6243,:~:,,37.6618944881,126.7659256092,N,N,N,N,N,N,N,N,,2022-04-08
공중화장실,백마골프타운,경기도 고양시 일산동구 고풍로43번길 48,경기도 고양시 일산동구 고풍로43번길 48 (풍동),N,12,16,0,0,0,0,17,0,0,일산동구청 환경녹지과 청소행정팀,031-8075-6243,:~:,,37.6606152712,126.7940894367,N,N,N,N,N,N,N,N,,2022-04-08
공중화장실,창일주유소,경기도 고양시 일산동구 고양대로 910,"경기도 고양시 일산동구 고양대로 910 (풍동, 창일주유소)",N,1,2,0,0,0,0,2,0,0,일산동구청 환경녹지과 청소행정팀,031-8075-6243,:~:,,37.6776348180,126.7960261400,N,N,N,N,N,N,N,N,,2022-04-08
공중화장실,중산주유소,경기도 고양시 일산동구 고양대로 756,"경기도 고양시 일산동구 고양대로 756 (중산동, 중산주유소)",N,0,2,0,0,0,0,1,0,0,일산동구청 환경녹지과,031-8075-6243,:~:,,37.6820797846,126.7798460911,N,N,N,N,N,N,N,N,,2022-04-08
공중화장실,제19주유소,경기도 고양시 일산동구 고양대로 1064,"경기도 고양시 일산동구 고양대로 1064 (식사동, 제19주유소)",N,2,2,0,0,0,0,2,0,0,일산동구청 환경녹지과 청소행정팀,031-8075-6243,:~:,,37.6697902672,126.8092308095,N,N,N,N,N,N,N,N,,2022-04-08
공중화장실,형진에너지,경기도 고양시 일산동구 고봉로819번길 8,경기도 고양시 일산동구 고봉로819번길 8 (설문동),N,0,0,0,0,0,0,0,0,0,일산동구청 환경녹지과 청소행정팀,031-8075-6243,:~:,,37.7263817823,126.7981522226,N,N,N,N,N,N,N,N,,2022-04-08
공중화장실,은곡주유소,경기도 고양시 일산동구 고봉로 719,"경기도 고양시 일산동구 고봉로 719 (설문동, 장군주유소)",N,1,2,0,0,0,0,1,0,0,일산동구청 환경녹지과 청소행정팀,031-8075-6243,:~:,,37.7210450976,126.7889776293,N,N,N,N,N,N,N,N,,2022-04-08
공중화장실,코오롱레이크폴리스3 B동,,"경기도 고양시 일산동구 고봉로 20-32 (장항동, 코오롱레이크폴리스III)",N,3,4,0,0,0,0,2,0,0,일산동구청 환경녹지과 청소행정팀,031-8075-6243,:~:,,37.6627561052,126.7653388910,N,N,N,N,N,N,N,N,,2022-04-08
공중화장실,코오롱레이크폴리스3 A동,,"경기도 고양시 일산동구 고봉로 20-26 (장항동, 코오롱레이크폴리스III)",N,3,4,0,0,0,0,2,0,0,일산동구청 환경녹지과 청소행정팀,031-8075-6243,:~:,,37.6631772287,126.7649379116,N,N,N,N,N,N,N,N,,2022-04-08
공중화장실,일산빌딩,경기도 고양시 일산동구 경의로 471,"경기도 고양시 일산동구 경의로 471 (정발산동, 일산빌딩)",N,10,16,0,0,0,0,16,0,0,일산동구청 환경녹지과 청소행정팀,031-8075-6243,:~:,,37.6708320283,126.7858965145,N,N,N,N,N,N,N,N,,2022-04-08
공중화장실,현대밀라트 A동,,"경기도 고양시 일산동구 경의로 47 (백석동, 현대밀라트)",N,2,4,0,0,0,0,5,0,0,일산동구청 환경녹지과 청소행정팀,031-8075-6243,:~:,,37.6397959053,126.7912941901,N,N,N,N,N,N,N,N,,2022-04-08
공중화장실,현대밀라트B동,,"경기도 고양시 일산동구 경의로 33 (백석동, 현대밀라트)",N,2,4,0,0,0,0,5,0,0,일산동구청 환경녹지과 청소행정팀,031-8075-6243,:~:,,37.6391332052,126.7905070824,N,N,N,N,N,N,N,N,,2022-04-08
공중화장실,현대밀라트 C동,,"경기도 고양시 일산동구 경의로 19 (백석동, 현대밀라트)",N,2,4,0,0,0,0,5,0,0,일산동구청 환경녹지과 청소행정팀,031-8075-6243,:~:,,37.6380438286,126.7892140133,N,N,N,N,N,N,N,N,,2022-04-08
공중화장실,그린골프랜드,,"경기도 고양시 일산동구 견달산로 69 (식사동, 그린골프랜드)",N,6,11,0,0,0,0,9,0,0,일산동구청 환경녹지과 청소행정팀,031-8075-6243,:~:,,,,N,N,N,N,N,N,N,N,,2022-04-08
공중화장실,백석배드민턴장,경기도 고양시 일산동구 강석로 15,경기도 고양시 일산동구 강석로 15 (백석동),N,9,17,0,0,0,0,14,0,0,일산동구청 환경녹지과 청소행정팀,031-8075-6243,:~:,,37.6446743971,126.7871898497,N,N,N,N,N,N,N,N,,2022-04-08
공중화장실,라페스타 쇼핑몰 A,경기도 고양시 일산동구 중앙로1275번길 38-31,"경기도 고양시 일산동구 중앙로1275번길 38-31 (장항동, 라페스타 A)",N,3,3,0,0,0,0,3,0,0,일산동구청 환경녹지과 청소행정팀,031-8075-6243,05:00~00:00,,37.6604752616,126.7696129537,N,N,N,N,N,N,N,N,,2022-04-08
공중화장실,마두도서관,경기도 고양시 일산동구 일산로 355,경기도 고양시 일산동구 일산로 355,N,11,16,4,4,0,0,11,4,0,마두도서관,,15,,37.6666808080,126.7820811961,N,N,N,N,N,N,N,N,,2022-04-08
공중화장실,백석도서관,경기도 고양시 일산동구 일산로 118,경기도 고양시 일산동구 일산로 118,N,14,10,1,4,1,1,14,1,1,백석도서관,,15,,37.6472188037,126.7936268007,N,N,N,N,N,N,N,N,,2022-04-08
공중화장실,식사도서관,경기도 고양시 일산동구 위시티2로 43-6,경기도 고양시 일산동구 위시티2로 43-6,N,8,11,1,0,1,1,17,1,2,식사도서관,,15,,37.6760934526,126.8159196528,N,N,N,N,N,N,N,N,,2022-04-08
공중화장실,광장화장실,경기도 고양시 일산동구 호수로 731,경기도 고양시 일산동구 호수로 731,N,7,7,1,0,1,0,16,1,1,고양시 공원관리과,031-8075-4350,24시간,,37.6644650844,126.7604466371,N,N,N,N,N,N,N,N,,2022-04-08
공중화장실,장미화장실,경기도 고양시 일산동구 호수로 731,경기도 고양시 일산동구 호수로 731,N,3,5,1,0,0,0,17,1,0,고양시 공원관리과,031-8075-4350,24시간,,37.6644650844,126.7604466371,N,N,N,N,N,N,N,N,,2022-04-08
공중화장실,회화나무화장실,경기도 고양시 일산동구 호수로 731,경기도 고양시 일산동구 호수로 731,N,2,3,1,0,0,0,9,1,0,고양시 공원관리과,031-8075-4350,24시간,,37.6644650844,126.7604466371,N,N,N,N,N,N,N,N,,2022-04-08
공중화장실,두루미화장실,경기도 고양시 일산동구 호수로 731,경기도 고양시 일산동구 호수로 731,N,3,7,1,0,0,0,9,1,0,고양시 공원관리과,031-8075-4350,24시간,,37.6644650844,126.7604466371,N,N,N,N,N,N,N,N,,2022-04-08
공중화장실,악어화장실,경기도 고양시 일산동구 호수로 731,경기도 고양시 일산동구 호수로 731,N,3,3,1,0,1,0,7,1,1,고양시 공원관리과,031-8075-4350,24시간,,37.6644650844,126.7604466371,N,N,N,N,N,N,N,N,,2022-04-08
공중화장실,폭포화장실,경기도 고양시 일산동구 호수로 731,경기도 고양시 일산동구 호수로 731,N,2,4,1,0,0,0,15,1,0,고양시 공원관리과,031-8075-4350,24시간,,37.6644650844,126.7604466371,N,N,N,N,N,N,N,N,,2022-04-08
공중화장실,백석공원(교통공원),경기도 고양시 일산동구 강송로 14,경기도 고양시 일산동구 강송로 14,N,3,3,0,0,0,0,0,0,0,고양시 공원관리과,031-8075-4337,24시간,,37.6424792469,126.7953719093,N,N,N,N,N,N,N,N,,2022-04-08
공중화장실,알미공원,경기도 고양시 일산동구 중앙로 1087-2,경기도 고양시 일산동구 중앙로 1087-2,N,3,4,0,0,0,0,6,0,0,고양시 공원관리과,031-8075-4337,24시간,,37.6455019630,126.7839400471,N,N,N,N,N,N,N,N,,2022-04-08
공중화장실,마두공원,경기도 고양시 일산동구 강송로 176-3,"경기도 고양시 일산동구 강송로 176-3, 마두공원개방화장실 (마두동)",N,1,2,0,0,0,0,3,0,0,고양시 공원관리과,031-8075-4337,24시간,,37.6546897883,126.7844866766,N,N,N,N,N,N,N,N,,2022-04-08
공중화장실,낙민공원,경기도 고양시 일산동구 호수로 530-2,경기도 고양시 일산동구 호수로 530-2,N,1,1,0,0,0,0,1,0,0,고양시 공원관리과,031-8075-4337,24시간,,37.6501131513,126.7730358954,N,N,N,N,N,N,N,N,,2022-04-08
공중화장실,일산문화공원,경기도 고양시 일산동구 중앙로 1271-1,경기도 고양시 일산동구 중앙로 1271-1,N,1,1,0,0,0,0,1,0,0,고양시 공원관리과,031-8075-4337,24시간,,37.6594848240,126.7726950956,N,N,N,N,N,N,N,N,,2022-04-08
공중화장실,정발산공원(청사인근),경기도 고양시 일산동구 햇살로 56,경기도 고양시 일산동구 햇살로 56,N,4,8,1,1,0,0,7,1,0,고양시 공원관리과,031-8075-4337,24시간,,37.6648999985,126.7768033912,N,N,N,N,N,N,N,N,,2022-04-08
공중화장실,정발산공원(체육공원),경기도 고양시 일산동구 일산로 355,경기도 고양시 일산동구 일산로 355,N,0,2,1,0,0,0,2,1,0,고양시 공원관리과,031-8075-4337,24시간,,37.6666808080,126.7820811961,N,N,N,N,N,N,N,N,,2022-04-08
공중화장실,은행마을공원,,경기도 고양시 일산동구 은행마을로 100,N,1,1,0,0,0,0,2,0,0,고양시 공원관리과,031-8075-4337,24시간,,37.6713465140,126.8071753208,N,N,N,N,N,N,N,N,,2022-04-08
공중화장실,달맞이공원,경기도 고양시 일산동구 숲속마을2로 71-2,경기도 고양시 일산동구 풍동 1228,N,1,1,0,0,0,0,2,0,0,고양시 공원관리과,031-8075-4337,24시간,,37.6746348080,126.8008058334,N,N,N,N,N,N,N,N,,2022-04-08
공중화장실,성아공원,경기도 고양시 일산동구 하늘마을1로 56-2,경기도 고양시 일산동구 하늘마을1로 56-2,N,3,3,0,0,0,0,6,0,0,고양시 공원관리과,031-8075-4337,24시간,,37.6776310168,126.7893808274,N,N,N,N,N,N,N,N,,2022-04-08
공중화장실,국민은행 평택중앙지점,경기도 평택시 평택로 90,경기도 평택시 평택로 90,N,2,2,0,0,0,0,2,0,0,국민은행 평택중앙지점,,24시간,,36.9947527601,127.0843223139,N,N,N,N,N,N,N,N,,2021-12-31
공중화장실,국민은행 평택지점,경기도 평택시 평택로32번길 25,경기도 평택시 평택로32번길 25,N,2,2,0,0,0,0,2,0,0,국민은행 평택지점,,24시간,,36.9914156369,127.0889816175,N,N,N,N,N,N,N,N,,2021-12-31
공중화장실,어침이공원,경기도 고양시 일산동구 위시티로 149,경기도 고양시 일산동구 위시티로 149 (식사동),N,1,3,1,0,0,0,5,1,0,고양시 공원관리과,031-8075-4337,24시간,,37.6853735624,126.8122165278,N,N,N,N,N,N,N,N,,2022-04-08
공중화장실,식사중앙공원,경기도 고양시 일산동구 위시티3로 44-2,경기도 고양시 일산동구 위시티3로 44-2,N,2,3,0,0,0,0,4,1,0,고양시 공원관리과,031-8075-4337,24시간,,37.6775701505,126.8141143439,N,N,N,N,N,N,N,N,,2022-04-08
공중화장실,굿모닝주유소,경기도 평택시 포승읍 서동대로 501,경기도 평택시 포승읍 서동대로 501,N,2,2,0,0,0,0,2,0,0,굿모닝주유소,,24시간,,36.9429286873,126.8779411134,N,N,N,N,N,N,N,N,,2021-12-31
공중화장실,궁전부페,경기도 평택시 경기대로 1409,경기도 평택시 경기대로 1409,N,3,4,0,0,0,0,6,0,0,궁전부페,,24시간,,37.0709955428,127.0641526922,N,N,N,N,N,N,N,N,,2021-12-31
공중화장실,하늘장미어린이공원,,경기도 고양시 일산동구 하늘마을로 94,N,2,3,0,0,0,0,4,0,0,일산동구 환경녹지과 녹지관리팀,031-8075-6266,24시간,,37.6803743993,126.7824935961,N,N,N,N,N,N,N,N,,2022-04-08
공중화장실,모범어린이공원,경기도 고양시 일산동구 백마로 318-4,경기도 고양시 일산동구 백마로 318-4,N,1,1,1,1,0,0,1,1,0,일산동구 환경녹지과 녹지관리팀,031-8075-6266,24시간,,37.6556716809,126.7858830221,N,N,N,N,N,N,N,N,,2022-04-08
공중화장실,향나무어린이공원,경기도 고양시 일산동구 호수로430번길 29-14,경기도 고양시 일산동구 호수로430번길 29-14,N,1,1,1,1,0,0,1,1,0,고양시 일산동구청 환경녹지과 녹지관리팀,031-8075-6266,24시간,,37.6445773733,126.7801176423,N,N,N,N,N,N,N,N,,2022-04-08
공중화장실,청천어린이공원,경기도 고양시 일산동구 백석로 169-3,경기도 고양시 일산동구 백석로 169-3,N,1,1,1,1,0,0,1,1,0,고양시 일산동구청 환경녹지과 녹지관리팀,031-8075-6266,24시간,,37.6525145800,126.7944608747,N,N,N,N,N,N,N,N,,2022-04-08
공중화장실,백송어린이공원,경기도 고양시 일산동구 강송로 120-3,경기도 고양시 일산동구 강송로 120-3,N,1,1,1,1,0,0,2,1,0,고양시 일산동구청 환경녹지과 녹지관리팀,031-8075-6266,24시간,,37.6507432035,126.7891610058,N,N,N,N,N,N,N,N,,2022-04-08
공중화장실,부촌어린이공원,경기도 고양시 일산동구 강송로 120-3,경기도 고양시 일산동구 강송로 120-3,N,1,1,1,1,0,0,1,1,0,고양시 일산동구청 환경녹지과 녹지관리팀,031-8075-6266,24시간,,37.6507432035,126.7891610058,N,N,N,N,N,N,N,N,,2022-04-08
공중화장실,벚나무어린이공원,경기도 고양시 일산동구 숲속마을로 50-9,경기도 고양시 일산동구 숲속마을로 50-9,N,2,1,1,1,0,0,2,1,0,고양시 일산동구청 환경녹지과 녹지관리팀,031-8075-6266,24시간,,37.6677559080,126.7974687678,N,N,N,N,N,N,N,N,,2022-04-08
공중화장실,소나무어린이공원,,경기도 고양시 일산동구 숲속마을로 49-6,N,2,1,1,1,0,0,2,1,0,고양시 일산동구청 환경녹지과 녹지관리팀,031-8075-6266,24시간,,,,N,N,N,N,N,N,N,N,,2022-04-08
공중화장실,목련어린이공원,경기도 고양시 일산동구 숲속마을2로 146,경기도 고양시 일산동구 숲속마을2로 146,N,1,1,1,1,0,0,2,1,0,고양시 일산동구청 환경녹지과 녹지관리팀,031-8075-6266,24시간,,37.6728136010,126.7976818935,N,N,N,N,N,N,N,N,,2022-04-08
공중화장실,참나무어린이공원,경기도 고양시 일산동구 숲속마을1로48번길 47-8,경기도 고양시 일산동구 숲속마을1로 48번길 47-8,N,2,1,1,1,0,0,2,1,0,고양시 일산동구청 환경녹지과 녹지관리팀,031-8075-6266,24시간,,37.6660452029,126.8008070518,N,N,N,N,N,N,N,N,,2022-04-08
공중화장실,방기어린이공원,경기도 고양시 일산동구 강송로113번길 36-14,경기도 고양시 일산동구 강송로113번길 36-14,N,1,1,1,1,0,0,1,1,0,고양시 일산동구청 환경녹지과 녹지관리팀,031-8075-6266,24시간,,37.6485356059,126.7847951101,N,N,N,N,N,N,N,N,,2022-04-08
공중화장실,말머리어린이공원,경기도 고양시 일산동구 강석로 132-4,경기도 고양시 일산동구 강석로 132-4,N,1,2,1,0,0,0,3,1,0,일산동구 환경녹지과 녹지관리팀,031-8075-6266,24시간,,37.6527804447,126.7817615895,N,N,N,N,N,N,N,N,,2022-04-08
공중화장실,장항어린이공원,,경기도 고양시 일산동구 정발산동 812,N,1,1,1,1,0,0,2,1,0,고양시 일산동구청 환경녹지과 녹지관리팀,031-8075-6266,24시간,,37.6662655595,126.7754884934,N,N,N,N,N,N,N,N,,2022-04-08
공중화장실,두루미어린이공원,경기도 고양시 일산동구 일산로441번길 52-2,경기도 고양시 일산동구 일산로441번길 52-2,N,2,2,1,0,0,0,3,1,0,고양시 일산동구청 환경녹지과 녹지관리팀,031-8075-6266,24시간,,37.6714306507,126.7761617151,N,N,N,N,N,N,N,N,,2022-04-08
공중화장실,수정어린이공원,경기도 고양시 일산동구 무궁화로148번길 33-2,경기도 고양시 일산동구 무궁화로 148번길 33-2,N,1,1,1,1,0,0,2,1,0,고양시 일산동구청 환경녹지과 녹지관리팀,031-8075-6266,24시간,,37.6682817164,126.7785620995,N,N,N,N,N,N,N,N,,2022-04-08
공중화장실,밤가시어린이공원,경기도 고양시 일산동구 일산로380번길 20-2,경기도 고양시 일산동구 일산로 380번길 20-2,N,1,1,1,1,0,0,3,1,0,고양시 일산동구청 환경녹지과 녹지관리팀,031-8075-6266,24시간,,37.6694782634,126.7826325335,N,N,N,N,N,N,N,N,,2022-04-08
공중화장실,중산오름어린이공원,경기도 고양시 일산동구 탄중로 337-2,경기도 고양시 일산동구 중산동 1575-1,N,2,2,0,1,0,0,2,2,0,고양시 일산동구청 환경녹지과 녹지관리팀,031-8075-6266,24시간,,37.6929314668,126.7827695996,N,N,N,N,N,N,N,N,,2022-04-08
공중화장실,올림푸스어린이공원,,경기도 고양시 일산동구 위시티4로 79,N,1,2,1,0,0,0,4,1,0,고양시 일산동구청 환경녹지과 녹지관리팀,031-8075-6266,24시간,,37.6801336565,126.8116638582,N,N,N,N,N,N,N,N,,2022-04-08
공중화장실,간이어린이공원,경기도 고양시 일산동구 백석로72번길 31-12,경기도 고양시 일산동구 백석로72번길 31-12,N,1,1,1,1,0,0,2,1,0,고양시 일산동구청 환경녹지과 녹지관리팀,031-8075-6266,24시간,,37.6461574841,126.7880031601,N,N,N,N,N,N,N,N,,2022-04-08
공중화장실,능안어린이공원,경기도 고양시 일산동구 일산로297번길 68-2,경기도 고양시 일산동구 일산로 297번길 68-2,N,1,1,1,1,0,0,2,1,0,일산동구 환경녹지과 녹지관리팀,031-8075-6266,24시간,,37.6599034059,126.7836543536,N,N,N,N,N,N,N,N,,2022-04-08
공중화장실,장항야구장,,경기도 고양시 일산동구 장항동 660-35,N,1,3,0,0,0,0,3,0,0,고양도시관리공사,031-970-2175,24시간,,37.6465512708,126.7443204948,N,N,N,N,N,N,N,N,,2022-04-08
공중화장실,지영동체육공원,,경기도 고양시 일산동구 통일로 1267번길 1440-40,N,2,4,1,0,0,0,6,1,0,고양도시관리공사,031-970-2175,24시간,,,,N,N,N,N,N,N,N,N,,2022-04-08
공중화장실,크리스탈빌딩 장항동,경기도 고양시 일산동구 중앙로1275번길 60-21,"경기도 고양시 일산동구 중앙로1275번길 60-21 (장항동, 크리스탈빌딩)",N,28,30,0,0,0,0,28,0,0,일산동구청 환경녹지과,031-8075-6243,:~:,,37.6597853105,126.7688147542,N,N,N,N,N,N,N,N,,2022-04-08
공중화장실,엔조이쓰리칼라,경기도 고양시 일산동구 중앙로1275번길 60-14,"경기도 고양시 일산동구 중앙로1275번길 60-14 (장항동, 고일프라자)",N,4,4,0,0,0,0,4,0,0,일산동구청 환경녹지과 청소행정팀,031-8075-6243,:~:,,37.6595471653,126.7696560589,N,N,N,N,N,N,N,N,,2022-04-08
공중화장실,우림로데오스위트,경기도 고양시 일산동구 중앙로1275번길 14-25,"경기도 고양시 일산동구 중앙로1275번길 14-25 (장항동, 우림로데오스위트)",N,9,12,0,0,0,0,14,0,0,일산동구청 환경녹지과 청소행정팀,031-8075-6243,:~:,,37.6601530100,126.7714301128,N,N,N,N,N,N,N,N,,2022-04-08
공중화장실,하이베라스,,"경기도 고양시 일산동구 중앙로1261번길 79 (장항동, 하이베라스)",N,15,23,0,0,0,0,15,0,0,일산동구청 환경녹지과,031-8075-6243,:~:,,37.6569621372,126.7699421337,N,N,N,N,N,N,N,N,,2022-04-08
공중화장실,호수광장빌딩,경기도 고양시 일산동구 중앙로1261번길 19,"경기도 고양시 일산동구 중앙로1261번길 19 (장항동, 호수광장빌딩)",N,7,11,0,0,0,0,14,0,0,일산동구청 환경녹지과,031-8075-6243,:~:,,37.6582588178,126.7726617072,N,N,N,N,N,N,N,N,,2022-04-08
공중화장실,쌍용플레티넘,,"경기도 고양시 일산동구 중앙로 1347 (장항동, 일산쌍용플래티넘오피스텔)",N,2,1,0,0,0,0,2,0,0,일산동구청 환경녹지과 청소행정팀,031-8075-6243,:~:,,37.6649802830,126.7679020883,N,N,N,N,N,N,N,N,,2022-04-08
공중화장실,청원레이크빌,,"경기도 고양시 일산동구 중앙로 1341 (장항동, 청원레이크빌)",N,2,3,0,0,0,0,2,0,0,일산동구청 환경녹지과 청소행정팀,031-8075-6243,:~:,,37.6646494873,126.7683361888,N,N,N,N,N,N,N,N,,2022-04-08
공중화장실,현대휘트니스센타,,"경기도 고양시 일산동구 중앙로 1322 (정발산동, 일산현대아이스페이스)",N,7,20,0,0,0,0,12,0,0,일산동구청 환경녹지과 청소행정팀,031-8075-6243,:~:,,37.6636912131,126.7707832758,N,N,N,N,N,N,N,N,,2022-04-08
공중화장실,허유재병원,경기도 고양시 일산동구 중앙로 1317,경기도 고양시 일산동구 중앙로 1317 (장항동),N,12,12,0,0,0,0,23,0,0,일산동구청 환경녹지과 청소행정팀,031-8075-6243,:~:,,37.6629288877,126.7699403885,N,N,N,N,N,N,N,N,,2022-04-08
공중화장실,위너스 21 2차,경기도 고양시 일산동구 호수로 646-24,"경기도 고양시 일산동구 호수로 646-24 (장항동, 위너스21 II)",N,16,16,0,0,0,0,23,0,0,일산동구청 환경녹지과 청소행정팀,031-8075-6243,:~:,,37.6597070909,126.7678291639,N,N,N,N,N,N,N,N,,2022-04-08
공중화장실,일신프라자,경기도 고양시 일산동구 탄중로 325-15,"경기도 고양시 일산동구 탄중로 325-15 (중산동, 일신프라자)",N,7,8,0,0,0,0,9,0,0,일산동구청 환경녹지과 청소행정팀,031-8075-6243,:~:,,37.6940307701,126.7812390918,N,N,N,N,N,N,N,N,,2022-04-08
공중화장실,중앙 하이츠빌,경기도 고양시 일산동구 중앙로1275번길 86-1,"경기도 고양시 일산동구 중앙로1275번길 86-1 (장항동, 중앙 하이츠빌)",N,3,6,0,0,0,0,3,0,0,일산동구청 환경녹지과 청소행정팀,031-8075-6243,:~:,,37.6586345814,126.7678396970,N,N,N,N,N,N,N,N,,2022-04-08
공중화장실,에메랄드빌딩,경기도 고양시 일산동구 중앙로1275번길 60-31,"경기도 고양시 일산동구 중앙로1275번길 60-31 (장항동, 에메랄드빌딩)",N,12,18,0,0,0,0,12,0,0,일산동구청 환경녹지과,031-8075-6243,00:00~00:00,,37.6601437092,126.7684711137,N,N,N,N,N,N,N,N,,2022-04-08
공중화장실,라페스타 쇼핑몰 D,경기도 고양시 일산동구 중앙로 1305-56,"경기도 고양시 일산동구 중앙로 1305-56 (장항동, 라페스타 D)",N,3,3,0,0,0,0,3,0,0,일산동구청 환경녹지과 청소행정팀,031-8075-6243,05:00~02:00,,37.6610260381,126.7683150660,N,N,N,N,N,N,N,N,,2022-04-08
공중화장실,마이다스 오피스텔,,"경기도 고양시 일산동구 중앙로 1305-30 (장항동, 마이다스 오피스텔)",N,3,3,0,0,0,0,3,0,0,일산동구청 환경녹지과 청소행정팀,031-8075-6243,:~:,,37.6615301670,126.7696706442,N,N,N,N,N,N,N,N,,2022-04-08
공중화장실,현대타운빌,,"경기도 고양시 일산동구 중앙로 1233 (장항동, 현대타운빌)",N,4,6,0,0,0,0,5,0,0,일산동구청 환경녹지과 청소행정팀,031-8075-6243,:~:,,37.6564853341,126.7744702474,N,N,N,N,N,N,N,N,,2022-04-08
공중화장실,뉴코아(일산점),경기도 고양시 일산동구 중앙로 1206,"경기도 고양시 일산동구 중앙로 1206 (마두동, 뉴코아백화점일산점)",N,15,19,0,0,0,0,11,0,0,일산동구청 환경녹지과 청소행정팀,031-8075-6243,10:30~22:00,,37.6545799678,126.7768241412,N,N,N,N,N,N,N,N,,2022-04-08
공중화장실,(주)모아나빌딩,경기도 고양시 일산동구 중앙로 1201,"경기도 고양시 일산동구 중앙로 1201 (장항동, 모아나빌딩)",N,2,1,0,0,0,0,2,0,0,일산동구청 환경녹지과 청소행정팀,031-8075-6243,06:00~22:00,,37.6537561958,126.7762426304,N,N,N,N,N,N,N,N,,2022-04-08
공중화장실,형지 제3빌딩,경기도 고양시 일산동구 중앙로 1197,"경기도 고양시 일산동구 중앙로 1197 (장항동, 형지 제3빌딩)",N,16,20,0,0,0,0,15,0,0,일산동구청 환경녹지과 청소행정팀,031-8075-6243,:~:,,37.6534328509,126.7764271528,N,N,N,N,N,N,N,N,,2022-04-08
공중화장실,일산올림픽 스포츠센터,경기도 고양시 일산동구 중앙로 1182,"경기도 고양시 일산동구 중앙로 1182 (마두동, 올림픽스포츠센터)",N,4,3,0,0,0,0,3,0,0,일산동구청 환경녹지과 청소행정팀,031-8075-6243,05:30~10:30,,37.6526140296,126.7781242173,N,N,N,N,N,N,N,N,,2022-04-08
공중화장실,동양생명보험,경기도 고양시 일산동구 중앙로 1165,경기도 고양시 일산동구 중앙로 1165 (장항동),N,16,24,0,0,0,0,16,0,0,일산동구청 환경녹지과,031-8075-6243,:~:,,37.6508192501,126.7779375414,N,N,N,N,N,N,N,N,,2022-04-08
공중화장실,GS 항공대 주유소,경기도 고양시 덕양구 중앙로 171,경기도 고양시 덕양구 화전동 575-6,N,2,2,0,0,0,0,2,0,0,민간,02-3158-0900,05:00~23:00,,37.6028261764,126.8696441402,N,N,N,N,N,N,N,N,,2022-04-08
공중화장실,그린주유소,경기도 평택시 삼남로 359,경기도 평택시 삼남로 359,N,1,1,0,0,0,0,2,0,0,그린주유소,,24시간,,37.0574259363,127.0937433857,N,N,N,N,N,N,N,N,,2021-12-31
공중화장실,금각리 공중화장실,경기도 평택시 서탄면 용소금각로 392,경기도 평택시 서탄면 용소금각로 392,N,1,1,0,0,0,0,2,0,0,평택시 서탄면,,24시간,,37.0729960991,127.0064755973,N,N,N,N,N,N,N,N,,2021-12-31
공중화장실,금곡주유소,경기도 평택시 안중읍 서해로 1209,경기도 평택시 안중읍 서해로 1209,N,1,1,0,0,0,0,1,0,0,금곡주유소,,24시간,,37.0011429271,126.9432376758,N,N,N,N,N,N,N,N,,2021-12-31
공중화장실,금성LPG충전소,,경기도 평택시 현덕면 서해로 30,N,1,2,0,0,0,0,2,0,0,금성LPG주유소,,24시간,,,,N,N,N,N,N,N,N,N,,2021-12-31
공중화장실,금성셀프주유소,,경기도 평택시 경기대로 1076,N,1,2,0,0,0,0,1,0,0,금성셀프주유소,,24시간,,,,N,N,N,N,N,N,N,N,,2021-12-31
공중화장실,금영주유소,경기도 평택시 진위면 경기대로 1786,경기도 평택시 진위면 경기대로 1786,N,1,1,0,0,0,0,1,0,0,금영주유소,,24시간,,37.1037264970,127.0642353343,N,N,N,N,N,N,N,N,,2021-12-31
공중화장실,기분좋은주유소,경기도 평택시 송탄로 212,경기도 평택시 송탄로 212,N,2,2,0,0,0,0,1,0,0,기분좋은주유소,,24시간,,37.0625191771,127.0584759049,N,N,N,N,N,N,N,N,,2021-12-31
공중화장실,LPG(GS) 충전소,경기도 고양시 덕양구 중앙로 279,경기도 고양시 덕양구 화전동 757-6,N,2,2,0,0,0,0,2,0,0,민간,02-3159-8118,00:00~24:00,,37.6092777174,126.8608883758,N,N,N,N,N,N,N,N,,2022-04-08
공중화장실,긴등골어린이공원,경기도 평택시 안중읍 안중로18번길 18,경기도 평택시 안중읍 현화리 859,N,2,3,0,0,0,0,2,0,0,평택시 공원과,,24시간,,36.9831260643,126.9267729135,N,N,N,N,N,N,N,N,,2021-12-31
공중화장실,상암에너지,경기도 고양시 덕양구 자유로 40,경기도 고양시 덕양구 덕은동425-97,N,2,3,0,0,0,0,2,0,0,민간,02-3158-0030,00:00~24:00,,37.5792819620,126.8593667954,N,N,N,N,N,N,N,N,,2022-04-08
공중화장실,덕양주유소,경기도 고양시 덕양구 충장로 142,경기도 고양시 덕양구 행신동942,N,1,2,0,0,0,0,2,0,0,민간,031-979-8426,6:00~24:00,,37.6249560470,126.8355286607,N,N,N,N,N,N,N,N,,2022-04-08
공중화장실,길음3리 소공원,,경기도 평택시 오성면 길음리 293-5,Y,1,1,0,0,0,0,1,0,0,평택시 공원과,,24시간,,36.9847683159,126.9692980685,N,N,N,N,N,N,N,N,,2021-12-31
공중화장실,남산근린공원 게이트볼장,,경기도 평택시 팽성읍 송화리 789,N,2,3,0,0,0,0,3,0,0,평택시 공원과,,24시간,,36.9615630637,127.0621149613,N,N,N,N,N,N,N,N,,2021-12-31
공중화장실,남산근린공원 족구장,,경기도 평택시 팽성읍 송화리 789,N,1,2,0,0,0,0,3,0,0,평택시 공원과,,24시간,,36.9615630637,127.0621149613,N,N,N,N,N,N,N,N,,2021-12-31
공중화장실,흥도동주민센터 화장실 1층,경기도 고양시 덕양구 흥도로454번길 44,"경기도 고양시 덕양구 흥도로454번길 44 (성사동, 흥도동주민센터)",N,2,3,0,0,0,0,2,0,0,흥도동주민센터,031-8075-5753,9:00~18:00,,37.6449709369,126.8543482789,N,N,N,N,N,N,N,N,,2022-04-08
공중화장실,흥도동주민센터 화장실 2층,경기도 고양시 덕양구 흥도로454번길 44,"경기도 고양시 덕양구 흥도로454번길 44 (성사동, 흥도동주민센터)",N,2,3,0,0,0,0,3,0,0,흥도동주민센터,031-8075-5753,9:00~18:00,,37.6449709369,126.8543482789,N,N,N,N,N,N,N,N,,2022-04-08
공중화장실,롯데마트화장실,경기도 고양시 덕양구 화중로 66,"경기도 고양시 덕양구 화중로 66 (화정동, 롯데마트)",N,5,8,0,0,0,0,8,0,0,고양시 덕양구 환경녹지과,031-8075-5753,10:00~23:00,,37.6329529662,126.8311167607,N,N,N,N,N,N,N,N,,2022-04-08
공중화장실,화정1동주민센터 화장실 1층,경기도 고양시 덕양구 화중로 197,"경기도 고양시 덕양구 화중로 197 (화정동, 화정1동주민센터)",N,2,2,0,0,0,0,2,0,0,화정1동주민센터,031-8075-5753,9:00~18:00,,37.6446745654,126.8334714003,N,N,N,N,N,N,N,N,,2022-04-08
공중화장실,화정1동주민센터 화장실 2층,경기도 고양시 덕양구 화중로 197,"경기도 고양시 덕양구 화중로 197 (화정동, 화정1동주민센터)",N,2,2,0,0,0,0,2,0,0,화정1동주민센터,031-8075-5753,9:00~18:00,,37.6446745654,126.8334714003,N,N,N,N,N,N,N,N,,2022-04-08
공중화장실,화정역광장,경기도 고양시 덕양구 화정로 지하 63,경기도 고양시 덕양구 화정로 지하 63,N,2,3,1,0,0,0,4,1,0,덕양구 환경녹지과,031-8075-5245,00:00~24:00,,37.6349468278,126.8330482872,N,N,N,N,N,N,N,N,,2022-04-08
공중화장실,세이브존화정 화장실1,경기도 고양시 덕양구 화정로 52,"경기도 고양시 덕양구 화정로 52 (화정동, 세이브존)",N,2,3,1,0,0,0,3,1,0,고양시 덕양구 환경녹지과,031-8075-5753,10:00~22:00,,37.6343605119,126.8313761507,N,N,N,N,N,N,N,N,,2022-04-08
공중화장실,세이브존화정 화장실2,경기도 고양시 덕양구 화정로 52,"경기도 고양시 덕양구 화정로 52 (화정동, 세이브존)",N,2,3,0,0,0,0,3,0,0,고양시 덕양구 환경녹지과,031-8075-5753,10:00~22:00,,37.6343605119,126.8313761507,N,N,N,N,N,N,N,N,,2022-04-08
공중화장실,세이브존화정 화장실4,경기도 고양시 덕양구 화정로 52,"경기도 고양시 덕양구 화정로 52 (화정동, 세이브존)",N,2,3,1,0,0,0,3,1,0,고양시 덕양구 환경녹지과,031-8075-5753,10:00~22:00,,37.6343605119,126.8313761507,N,N,N,N,N,N,N,N,,2022-04-08
공중화장실,세이브존화정 화장실6,경기도 고양시 덕양구 화정로 52,"경기도 고양시 덕양구 화정로 52 (화정동, 세이브존)",N,3,5,0,0,0,0,5,0,0,고양시 덕양구 환경녹지과,031-8075-5753,10:00~22:00,,37.6343605119,126.8313761507,N,N,N,N,N,N,N,N,,2022-04-08
공중화장실,옥빛공원 화장실,경기도 고양시 덕양구 화정로 90-2,"경기도 고양시 덕양구 화정로 90-2, 옥빛공원개방화장실 (화정동)",N,1,3,1,0,0,0,2,1,0,공원관리과 공원1팀,031-8075-4320,00:00~24:00,,37.6333036796,126.8357603394,N,N,N,N,N,N,N,N,,2022-04-08
공중화장실,꽃우물공원 화장실,,경기도 고양시 덕양구 화정동 950,N,2,3,0,0,0,0,2,0,0,고양시 공원관리과,031-8075-2753,00:00~24:00,,37.6281628177,126.8278728072,N,N,N,N,N,N,N,N,,2022-04-08
공중화장실,화정18호 어린이공원,경기도 고양시 덕양구 중앙로 646,경기도 고양시 덕양구 화정동 949,N,1,2,0,0,0,0,3,0,0,덕양구 환경녹지과 공원관리팀,031-8075-5267,00:00~24:00,,37.6286584538,126.8272114499,N,N,N,N,N,N,N,N,,2022-04-08
공중화장실,화정13호 어린이공원,경기도 고양시 덕양구 화중로138번길 41,경기도 고양시 덕양구 화정동 890,N,1,1,0,0,0,0,2,0,0,덕양구 환경녹지과 공원관리팀,031-8075-5267,00:00~24:00,,37.6392196942,126.8347442492,N,N,N,N,N,N,N,N,,2022-04-08
공중화장실,화정12호 어린이공원,경기도 고양시 덕양구 화수로 40,경기도 고양시 덕양구 화정동 869,N,1,2,0,0,0,0,2,0,0,덕양구 환경녹지과 공원관리팀,031-8075-5267,00:00~24:00,,37.6441384673,126.8343036541,N,N,N,N,N,N,N,N,,2022-04-08
공중화장실,화수공원 화장실,경기도 고양시 덕양구 화수로 71-2,"경기도 고양시 덕양구 화수로 71-2, 공중화장실 (화정동)",N,2,3,1,0,0,0,2,1,0,공원관리과 공원1팀,031-8075-4320,00:00~24:00,,37.6442044515,126.8380209869,N,N,N,N,N,N,N,N,,2022-04-08
공중화장실,화정2동주민센터 2층,경기도 고양시 덕양구 화신로 232,"경기도 고양시 덕양구 화신로 232 (화정동, 화정2동주민센터)",N,1,2,0,0,0,0,2,0,0,화정2동주민센터,031-8075-5753,9:00~18:00,,37.6305633243,126.8357053996,N,N,N,N,N,N,N,N,,2022-04-08
공중화장실,화정2동주민센터 1층,경기도 고양시 덕양구 화신로 232,"경기도 고양시 덕양구 화신로 232 (화정동, 화정2동주민센터)",N,2,3,0,0,0,0,3,0,0,화정2동주민센터,031-8075-5753,9:00~18:00,,37.6305633243,126.8357053996,N,N,N,N,N,N,N,N,,2022-04-08
공중화장실,민방위교육장 2층,경기도 고양시 덕양구 화신로 214,"경기도 고양시 덕양구 화신로 214 (행신동, 고양시민방위교육장)",N,4,6,0,0,0,0,5,0,0,고양시 덕양구 환경녹지과,031-8075-5753,9:00~18:00,,37.6303404571,126.8377473272,N,N,N,N,N,N,N,N,,2022-04-08
공중화장실,민방위교육장 1층,경기도 고양시 덕양구 화신로 214,"경기도 고양시 덕양구 화신로 214 (행신동, 고양시민방위교육장)",N,4,7,0,0,0,0,5,0,0,고양시 덕양구 환경녹지과,031-8075-5753,9:00~18:00,,37.6303404571,126.8377473272,N,N,N,N,N,N,N,N,,2022-04-08
공중화장실,화전역 화장실,경기도 고양시 덕양구 화랑로 53,"경기도 고양시 덕양구 화랑로 53 (화전동, 화전역)",N,4,7,0,0,0,0,6,0,0,한국철도공사,02-3158-0788,05:00~00:30,,37.6033151662,126.8683825019,N,N,N,N,N,N,N,N,,2022-04-08
공중화장실,성사1동주민센터 화장실,경기도 고양시 덕양구 호국로790번길 101,"경기도 고양시 덕양구 호국로790번길 101 (성사동, 성사1동주민센터)",N,3,4,1,0,0,0,2,1,0,덕양구 성사1동,031-8075-5708,9:00~18:00,,37.6545073246,126.8413645477,N,N,N,N,N,N,N,N,,2022-04-08
공중화장실,성사2동 주민센터 화장실,,"경도기 고양시 덕양구 호국로742번길 6-6 (성사동, 성사2동주민센터)",N,2,2,1,0,0,0,2,1,0,덕양구 성사2동주민센터,031-8075-5722,9:00~18:00,,,,N,N,N,N,N,N,N,N,,2022-04-08
공중화장실,성사공원(관리사옆),경기도 고양시 덕양구 호국로 876,경기도 고양시 덕양구 호국로 876,N,2,3,0,0,0,0,3,0,0,공원관리과 공원1팀,031-8075-4320,00:00~24:00,,37.6627586356,126.8437293076,N,N,N,N,N,N,N,N,,2022-04-08
공중화장실,원신동주민센터 1층,경기도 고양시 덕양구 호국로 1261,"경기도 고양시 덕양구 호국로 1261 (신원동, 원신동주민센터)",N,2,2,0,0,0,0,3,0,0,원신동주민센터,031-8075-2753,9:00~18:00,,37.6773992847,126.8758518636,N,N,N,N,N,N,N,N,,2022-04-08
공중화장실,행주역사공원,경기도 고양시 덕양구 행주산성로 93-38,경기도 고양시 덕양구 행주산성로 93-38,N,1,2,0,0,0,0,3,0,0,고양시 생태하천과,031-8075-2753,00:00~24:00,,37.5980399763,126.8193196829,N,N,N,N,N,N,N,N,,2022-04-08
공중화장실,행주산성제중간 화장실,경기도 고양시 덕양구 행주로15번길 89,경기도 고양시 덕양구 행주로15번길 89 (행주외동),N,2,2,0,0,0,0,3,0,0,행주산성관리사업소,031-8075-4647,9:00~18:00,,37.5960440051,126.8264743850,N,N,N,N,N,N,N,N,,2022-04-08
공중화장실,행주산성제2주차장 화장실,경기도 고양시 덕양구 행주로15번길 89,경기도 고양시 덕양구 행주로15번길 89 (행주외동),N,3,4,0,0,0,0,6,0,0,행주산성관리사업소,031-8075-4647,유사시,,37.5960440051,126.8264743850,N,N,N,N,N,N,N,N,,2022-04-08
공중화장실,충장공원(풋살구장),,경기도 고양시 덕양구 행주내동 639,N,5,7,0,0,0,0,9,0,0,공원관리과 공원1팀,031-8075-4320,00:00~24:00,,37.6144453046,126.8247336537,N,N,N,N,N,N,N,N,,2022-04-08
공중화장실,행신9호 어린이공원,경기도 고양시 덕양구 소만로 42,경기도 고양시 덕양구 행신동 792,N,1,2,0,0,0,0,2,0,0,덕양구 환경녹지과 공원관리팀,031-8075-5267,00:00~24:00,,37.6167464088,126.8438506651,N,N,N,N,N,N,N,N,,2022-04-08
공중화장실,행신8호 어린이공원,경기도 고양시 덕양구 화신로 16,경기도 고양시 덕양구 행신동 786,N,1,2,0,0,0,0,3,0,0,덕양구 환경녹지과 공원관리팀,031-8075-5267,00:00~24:00,,37.6140130585,126.8402035868,N,N,N,N,N,N,N,N,,2022-04-08
공중화장실,행신5호 어린이공원,경기도 고양시 덕양구 행신로 196,경기도 고양시 덕양구 행신동 775,N,1,1,0,0,0,0,2,0,0,덕양구 환경녹지과 공원관리팀,031-8075-5267,00:00~24:00,,37.6182305058,126.8368462818,N,N,N,N,N,N,N,N,,2022-04-08
공중화장실,행신4호 어린이공원,경기도 고양시 덕양구 용현로 37,경기도 고양시 덕양구 행신동 755,N,2,2,1,0,0,0,3,1,0,덕양구 환경녹지과 공원관리팀,031-8075-5267,00:00~24:00,,37.6160246072,126.8356648039,N,N,N,N,N,N,N,N,,2022-04-08
공중화장실,행신3호 어린이공원,경기도 고양시 덕양구 무원로 56,경기도 고양시 덕양구 행신동 734,N,2,1,1,0,0,0,3,1,0,덕양구 환경녹지과 공원관리팀,031-8075-5267,00:00~24:00,,37.6179461380,126.8327695979,N,N,N,N,N,N,N,N,,2022-04-08
공중화장실,행신1호 어린이공원,경기도 고양시 덕양구 소원로 11,경기도 고양시 덕양구 행신동 694,N,1,1,0,0,0,0,2,0,0,덕양구 환경녹지과 공원관리팀,031-8075-5267,00:00~24:00,,37.6172534783,126.8298297197,N,N,N,N,N,N,N,N,,2022-04-08
공중화장실,서정4호 어린이공원,경기도 고양시 덕양구 소원로 260,경기도 고양시 덕양구 행신동 1110,N,3,3,1,0,0,0,6,1,0,덕양구 환경녹지과 공원관리팀,031-8075-5267,00:00~24:00,,37.6141276994,126.8511252385,N,N,N,N,N,N,N,N,,2022-04-08
공중화장실,삼성화재 일산사옥,경기도 고양시 일산동구 중앙로 1161,"경기도 고양시 일산동구 중앙로 1161 (장항동, 삼성화재㈜일산사옥)",N,2,2,0,0,0,0,3,0,0,일산동구청 환경녹지과,031-8075-6243,:~:,,37.6505318838,126.7781103647,N,N,N,N,N,N,N,N,,2022-04-08
공중화장실,올리브상가,,"경기도 고양시 일산동구 중앙로 1130 (마두동, 강촌마을6단지아파트)",N,24,25,0,0,0,0,30,0,0,일산동구청 환경녹지과 청소행정팀,031-8075-6243,:~:,,37.6496256078,126.7802502896,N,N,N,N,N,N,N,N,,2022-04-08
공중화장실,흰돌복합상가,,"경기도 고양시 일산동구 중앙로 1124 (백석동, 흰돌마을1단지아파트)",N,5,8,0,0,0,0,10,0,0,일산동구청 환경녹지과 청소행정팀,031-8075-6243,:~:,,37.6475958027,126.7829110755,N,N,N,N,N,N,N,N,,2022-04-08
공중화장실,이마트(일산점),,"경기도 고양시 일산동구 중앙로 1124 (백석동, 흰돌마을1단지아파트)",N,6,3,0,0,0,0,6,0,0,일산동구청 환경녹지과 청소행정팀,031-8075-6243,10:00~23:00,,37.6475958027,126.7829110755,N,N,N,N,N,N,N,N,,2022-04-08
공중화장실,폭스바겐 전시장,경기도 고양시 일산동구 중앙로 1067,경기도 고양시 일산동구 중앙로 1067 (백석동),N,3,3,0,0,0,0,3,0,0,일산동구청 환경녹지과 청소행정팀,031-8075-6243,:~:,,37.6443483913,126.7854473569,N,N,N,N,N,N,N,N,,2022-04-08
공중화장실,영림브레아 2차,,"경기도 고양시 일산동구 중앙로 1047 (백석동, 영림브레아오피스텔)",N,2,2,0,0,0,0,2,0,0,일산동구청 환경녹지과 청소행정팀,031-8075-6243,00:00~00:00,,37.6431060422,126.7871821670,N,N,N,N,N,N,N,N,,2022-04-08
공중화장실,홈플러스(고양터미널점),경기도 고양시 일산동구 중앙로 1036,"경기도 고양시 일산동구 중앙로 1036 (백석동, 베스트 고양터미널)",N,12,34,0,0,0,0,24,0,0,일산동구청 환경녹지과 청소행정팀,031-8075-6243,10:00~00:00,,37.6431934574,126.7897203592,N,N,N,N,N,N,N,N,,2022-04-08
공중화장실,현대밀라트 2차 A동,,"경기도 고양시 일산동구 중앙로 1011 (백석동, 현대밀라트II)",N,2,3,0,0,0,0,2,0,0,일산동구청 환경녹지과 청소행정팀,031-8075-6243,:~:,,37.6409515327,126.7901157474,N,N,N,N,N,N,N,N,,2022-04-08
공중화장실,현대밀라트2차B동,,"경기도 고양시 일산동구 중앙로 1005 (백석동, 현대밀라트II)",N,2,3,0,0,0,0,2,0,0,일산동구청 환경녹지과 청소행정팀,031-8075-6243,:~:,,37.6403880914,126.7908465182,N,N,N,N,N,N,N,N,,2022-04-08
공중화장실,해태스포츠센타,경기도 고양시 일산동구 중산로 241,"경기도 고양시 일산동구 중산로 241 (중산동, 해태쇼핑타운)",N,8,12,0,0,0,0,10,0,0,일산동구청 환경녹지과 청소행정팀,031-8075-6243,:~:,,37.6936996033,126.7801420540,N,N,N,N,N,N,N,N,,2022-04-08
공중화장실,센트럴 프라자,경기도 고양시 일산동구 정발산로 43-20,"경기도 고양시 일산동구 정발산로 43-20 (장항동, 센트럴프라자)",N,39,39,0,0,0,0,39,0,0,일산동구청 환경녹지과 청소행정팀,031-8075-6243,:~:,,37.6583803846,126.7733747675,N,N,N,N,N,N,N,N,,2022-04-08
공중화장실,낙원프라자,경기도 고양시 일산동구 정발산로 33,"경기도 고양시 일산동구 정발산로 33 (장항동, 낙원프라자)",N,19,38,0,0,0,0,19,0,0,일산동구청 환경녹지과 청소행정팀,031-8075-6243,:~:,,37.6571675824,126.7725589823,N,N,N,N,N,N,N,N,,2022-04-08
공중화장실,강호당구클럽,경기도 고양시 일산동구 정발산로 33,"경기도 고양시 일산동구 정발산로 33 (장항동, 낙원프라자)",N,12,16,0,0,0,0,17,0,0,일산동구청 환경녹지과 청소행정팀,031-8075-6243,:~:,,37.6571675824,126.7725589823,N,N,N,N,N,N,N,N,,2022-04-08
공중화장실,파크프라자,,"경기도 고양시 일산동구 정발산로 31-10 (장항동, 파크프라자)",N,28,30,0,0,0,0,29,0,0,일산동구청 환경녹지과 청소행정팀,031-8075-6243,:~:,,37.6573920608,126.7724207470,N,N,N,N,N,N,N,N,,2022-04-08
공중화장실,내리문화공원(광장),경기도 평택시 팽성읍 내리길 64-23,경기도 평택시 팽성읍 내리 산3-3,N,2,3,1,1,0,0,5,1,0,평택시 공원과,,24시간,,36.9752514145,127.0325552811,N,N,N,N,N,N,N,N,,2021-12-31
공중화장실,오거리공원,경기도 고양시 일산서구 주엽로 220-4,경기도 고양시 일산서구 주엽동 34,N,1,1,0,0,0,0,1,1,0,일산서구 환경녹지과,,24시간,,37.6760639231,126.7645839927,N,N,N,N,N,N,N,N,,2022-04-08
공중화장실,회화공원,경기도 고양시 일산서구 고봉로 25-3,경기도 고양시 일산서구 주엽동 91,N,2,3,1,0,0,0,5,1,0,일산서구 환경녹지과,,24시간,,37.6656761752,126.7638588009,N,N,N,N,N,N,N,N,,2022-04-08
공중화장실,궁골공원,경기도 고양시 일산서구 고봉로 91-3,경기도 고양시 일산서구 주엽동 55,N,2,3,1,0,0,0,4,1,0,일산서구 환경녹지과,,24시간,,37.6695573032,126.7690817325,N,N,N,N,N,N,N,N,,2022-04-08
공중화장실,문화공원,,경기도 고양시 일산서구 주엽동 77,N,1,2,1,0,0,0,2,1,0,고양시 공원관리과,031-8075-4339,24시간,,37.6752632782,126.7648738469,N,N,N,N,N,N,N,N,,2022-04-08
공중화장실,이물재공원,경기도 고양시 일산서구 고봉로 143-3,경기도 고양시 일산서구 주엽동 39,N,1,1,1,0,0,2,3,1,0,일산서구 환경녹지과,,24시간,,37.6735387318,126.7716054168,N,N,N,N,N,N,N,N,,2022-04-08
공중화장실,송산동 행정복지센터 화장실(3층),경기도 고양시 일산서구 덕이로 50-7,경기도 고양시 일산서구 덕이로 50-7,N,1,1,0,0,0,0,2,0,0,송산동 행정복지센터,031-8075-7943,09:00~18:00,,37.6909070774,126.7542861708,N,N,N,N,N,N,N,N,,2022-04-08
공중화장실,송산동 행정복지센터 화장실(2층),경기도 고양시 일산서구 덕이로 50-7,경기도 고양시 일산서구 덕이로 50-7,N,1,2,0,0,0,0,2,0,0,송산동 행정복지센터,031-8075-7943,09:00~18:00,,37.6909070774,126.7542861708,N,N,N,N,N,N,N,N,,2022-04-08
공중화장실,송포동 행정복지센터 화장실(2층),경기도 고양시 일산서구 대화로 143,경기도 고양시 일산서구 대화로 143,N,2,2,0,0,0,0,2,0,0,송포동 행정복지센터,031-8075-7913,09:00~18:00,,37.6714171483,126.7354540619,N,N,N,N,N,N,N,N,,2022-04-08
공중화장실,대화동 행정복지센터 화장실(3층),,경기도 고양시 일산서구 일산로 688,N,1,1,0,0,0,0,1,0,0,대화동 행정복지센터,031-8075-7885,09:00~18:00,,,,N,N,N,N,N,N,N,N,,2022-04-08
공중화장실,대화동 행정복지센터 화장실(2층),,경기도 고양시 일산서구 일산로 688,N,1,1,0,0,0,0,2,0,0,대화동 행정복지센터,031-8075-7885,09:00~18:00,,,,N,N,N,N,N,N,N,N,,2022-04-08
공중화장실,대화동 행정복지센터 화장실(1층),,경기도 고양시 일산서구 일산로 688,N,2,2,0,0,0,0,3,0,0,대화동 행정복지센터,031-8075-7885,09:00~18:00,,,,N,N,N,N,N,N,N,N,,2022-04-08
공중화장실,주엽2동 행정복지센터 화장실(3층),경기도 고양시 일산서구 주엽로 178,경기도 고양시 일산서구 주엽로 178,N,1,1,0,0,0,0,1,0,0,주엽2동 행정복지센터,031-8075-7855,09:00~18:00,,37.6741184196,126.7604755694,N,N,N,N,N,N,N,N,,2022-04-08
공중화장실,주엽2동 행정복지센터 화장실(1층),경기도 고양시 일산서구 주엽로 178,경기도 고양시 일산서구 주엽로 178,N,1,2,1,0,0,0,2,1,0,주엽2동 행정복지센터,031-8075-7855,09:00~18:00,,37.6741184196,126.7604755694,N,N,N,N,N,N,N,N,,2022-04-08
공중화장실,주엽1동 행정복지센터 화장실(3층),,경기도 고양시 일산서구 주엽동 강선로 109,N,1,1,0,0,0,0,2,0,0,주엽1동 행정복지센터,031-8075-7823,09:00~18:00,,,,N,N,N,N,N,N,N,N,,2022-04-08
공중화장실,주엽1동 행정복지센터 화장실(2층),,경기도 고양시 일산서구 주엽동 강선로 109,N,0,0,0,0,0,0,2,0,0,주엽1동 행정복지센터,031-8075-7823,09:00~18:00,,,,N,N,N,N,N,N,N,N,,2022-04-08
공중화장실,탄현동 행정복지센터 화장실(3층),경기도 고양시 일산서구 홀트로 36,경기도 고양시 일산서구 홀트로 36,N,2,3,0,0,0,0,3,0,0,탄현동 행정복지센터,031-8075-7794,09:00~18:00,,37.6943123866,126.7684077631,N,N,N,N,N,N,N,N,,2022-04-08
공중화장실,탄현동 행정복지센터 화장실(1층),경기도 고양시 일산서구 홀트로 36,경기도 고양시 일산서구 홀트로 36,N,2,3,1,0,0,0,3,1,0,탄현동 행정복지센터,031-8075-7794,09:00~18:00,,37.6943123866,126.7684077631,N,N,N,N,N,N,N,N,,2022-04-08
공중화장실,일산3동 행정복지센터 화장실(3층),경기도 고양시 일산서구 강선로 158,경기도 고양시 일산서구 강선로 158,N,0,1,0,0,0,0,1,0,0,일산3동 행정복지센터,031-8075-7762,09:00~18:00,,37.6769823818,126.7702449619,N,N,N,N,N,N,N,N,,2022-04-08
공중화장실,일산3동 행정복지센터 화장실(1층),경기도 고양시 일산서구 강선로 158,경기도 고양시 일산서구 강선로 158,N,1,2,1,0,0,0,1,1,0,일산3동 행정복지센터,031-8075-7762,09:00~18:00,,37.6769823818,126.7702449619,N,N,N,N,N,N,N,N,,2022-04-08
공중화장실,일산2동 행정복지센터 화장실(3층),경기도 고양시 일산서구 고봉로 283,경기도 고양시 일산서구 고봉로 283(일산동),N,2,2,0,0,0,1,3,1,0,일산2동 행정복지센터,031-8075-7735,09:00~18:00,,37.6846232867,126.7771903313,N,N,N,N,N,N,N,N,,2022-04-08
공중화장실,일산2동 행정복지센터 화장실(2층),경기도 고양시 일산서구 고봉로 283,경기도 고양시 일산서구 고봉로 283(일산동),N,2,2,0,0,0,1,3,1,0,일산2동 행정복지센터,031-8075-7735,09:00~18:00,,37.6846232867,126.7771903313,N,N,N,N,N,N,N,N,,2022-04-08
공중화장실,일산2동 행정복지센터 화장실(1층),경기도 고양시 일산서구 고봉로 283,경기도 고양시 일산서구 고봉로 283(일산동),N,2,2,0,0,0,1,3,1,0,일산2동 행정복지센터,031-8075-7735,09:00~18:00,,37.6846232867,126.7771903313,N,N,N,N,N,N,N,N,,2022-04-08
공중화장실,일산1동 행정복지센터 화장실(3층),경기도 고양시 일산서구 원일로 55,경기도 고양시 일산서구 원일로 55,N,1,1,0,0,0,0,0,0,0,일산1동 행정복지센터,031-8075-7704,09:00~18:00,,37.6872378175,126.7685339725,N,N,N,N,N,N,N,N,,2022-04-08
공중화장실,일산1동 행정복지센터 화장실(2층),경기도 고양시 일산서구 원일로 55,경기도 고양시 일산서구 원일로 55,N,0,0,0,0,0,0,4,0,0,일산1동 행정복지센터,031-8075-7704,09:00~18:00,,37.6872378175,126.7685339725,N,N,N,N,N,N,N,N,,2022-04-08
공중화장실,일산1동행정복지센터화장실(1층),경기도 고양시 일산서구 원일로 55,경기도 고양시 일산서구 원일로 55,N,2,3,0,0,0,0,0,1,0,일산1동 행정복지센터,031-8075-7704,09:00~18:00,,37.6872378175,126.7685339725,N,N,N,N,N,N,N,N,,2022-04-08
공중화장실,일산서구청 화장실(5층),경기도 고양시 일산서구 중앙로 1600,경기도 고양시 일산서구 중앙로 1600,N,4,4,0,0,0,0,9,0,0,일산서구청,031-8075-7044,09:00~18:00,,37.6779159791,126.7452987036,N,N,N,N,N,N,N,N,,2022-04-08
공중화장실,일산서구청 화장실(3층),경기도 고양시 일산서구 중앙로 1600,경기도 고양시 일산서구 중앙로 1600,N,4,4,0,0,0,0,9,0,0,일산서구청,031-8075-7044,09:00~18:00,,37.6779159791,126.7452987036,N,N,N,N,N,N,N,N,,2022-04-08
공중화장실,일산서구청 화장실(2층),경기도 고양시 일산서구 중앙로 1600,경기도 고양시 일산서구 중앙로 1600,N,5,5,1,0,1,2,9,1,1,일산서구청,031-8075-7044,09:00~18:00,,37.6779159791,126.7452987036,N,N,N,N,N,N,N,N,,2022-04-08
공중화장실,일산서구청 화장실(지하1층),경기도 고양시 일산서구 중앙로 1600,경기도 고양시 일산서구 중앙로 1600,N,1,2,0,0,0,0,2,0,0,일산서구청,031-8075-7044,09:00~18:00,,37.6779159791,126.7452987036,N,N,N,N,N,N,N,N,,2022-04-08
공중화장실,신풍프라자,,"경기도 고양시 일산동구 호수로 646-30 (장항동, 신풍프라자)",N,23,23,0,0,0,0,23,0,0,일산동구청 환경녹지과 청소행정팀,031-8075-6243,:~:,,37.6599073399,126.7681446464,N,N,N,N,N,N,N,N,,2022-04-08
개방화장실,문화예술회관,경기도 가평군 문화로 131,경기도 가평군 가평읍 대곡리 316번지,Y,2,2,0,0,0,0,2,0,0,가평군시설관리공단,031-8078-8076,9,,37.8242546008,127.5066699979,공공기관,공공용시설,수세식,Y,남자화장실+장애인화장실+여자화장실,N,Y,남자화장실+여자화장실,,2023-04-03
공중화장실,보납산 입구 화장실,경기도 가평군 가평읍 자라목6길 34,경기도 가평군 가평읍 읍내리 289-4번지,Y,2,2,0,0,0,0,4,0,0,가평군 산림과,031-580-2383,24시간,2023-08,37.8342128214,127.5188761869,지방자치단체,기타,수세식,Y,남자화장실+여자화장실,N,Y,남자화장실+여자화장실,,2023-04-03
공중화장실,운악산 화장실1,경기도 가평군 조종면 현등사길 34,경기도 가평군 조종면 운악리 산163번지,Y,2,1,0,0,0,0,2,0,0,가평군 산림과,,24시간,,37.8705872565,127.3310431286,지방자치단체,관광·체육시설,수거식,N,,N,N,,,2023-04-03
공중화장실,운악산 화장실2,경기도 가평군 조종면 현등사길 34,경기도 가평군 조종면 운악리 산163번지,Y,1,1,0,0,0,0,1,0,0,가평군 산림과,,24시간,,37.8705872565,127.3310431286,지방자치단체,관광·체육시설,수세식,N,,N,N,,,2023-04-03
공중화장실,물안길화장실(캐나다참전비),경기도 가평군 북면 이곡리 207-4,경기도 가평군 북면 이곡리 207-4,Y,1,1,0,0,0,0,2,0,0,가평군 산림과,,24시간,,37.8764787306,127.5300174109,지방자치단체,관광·체육시설,수세식,N,,N,N,,,2023-04-03
공중화장실,화악터널 화장실,경기도 가평군 북면 화악리 산228-1,경기도 가평군 북면 화악리 산228-1,Y,1,1,0,0,0,0,2,0,0,가평군 산림과,,24시간,,37.9928292356,127.5225727995,지방자치단체,관광·체육시설,수거식,N,,N,N,,,2023-04-03
공중화장실,명지산 화장실,경기도 가평군 북면 가화로 2089-218,경기도 가평군 북면 도대리 247-3번지,Y,1,2,0,0,0,0,2,0,0,가평군 산림과,,24시간,,37.9346807817,127.4765918202,지방자치단체,관광·체육시설,수세식,N,,N,N,,,2023-04-03
공중화장실,청평여울시장,경기도 가평군 청평면 시장중앙로,,Y,1,1,0,0,0,0,1,0,0,가평군청 소상공인지원과,031-580-4168,24시간,2023-10,,,지방자치단체,공공용시설,수세식,Y,장애인화장실+여자화장실,Y,Y,여자화장실,,2023-04-03
공중화장실,청평시장 화장실,경기도 가평군 청평면 시장중앙로 19,경기도 가평군 청평면 청평리 81-2번지,Y,1,2,0,0,0,0,3,0,0,가평군청 자원순환과,,운영시간내,,37.7346061435,127.4158805810,지방자치단체,공공용시설,수세식,Y,여자화장실,N,N,,,2023-04-03
공중화장실,현리터미널화장실,경기도 가평군 조종면 현창로 35,경기도 가평군 조종면 현리 410-6번지,Y,1,1,0,0,0,0,1,0,0,가평군청 자원순환과,,운영시간내,,37.8179741230,127.3483422077,지방자치단체,공공용시설,수세식,Y,여자화장실,N,N,,,2023-04-03
공중화장실,운악산 공중화장실,경기도 가평군 조종면 현등사길 11,,Y,1,1,0,0,0,0,1,0,0,가평군청 자원순환과,,운영시간내,,,,지방자치단체,공공용시설,수세식,N,,N,N,,,2023-04-03
공중화장실,유명산 공중화장실,경기도 가평군 설악면 유명산길 101-30,경기도 가평군 설악면 가일리 225-4번지,Y,12,0,0,0,0,0,2,0,0,가평군청 자원순환과,,운영시간내,,37.5922777353,127.4888991380,지방자치단체,공공용시설,수세식,N,,N,N,,,2023-04-03
공중화장실,솔고개 공중화장실,경기도 가평군 설악면 유명로 1833-5,경기도 가평군 설악면 선촌리 산45-3번지,Y,1,2,0,0,0,0,2,0,0,가평군청 자원순환과,,운영시간내,,37.6763161626,127.4708330221,지방자치단체,공공용시설,수세식,N,,N,N,,,2023-04-03
공중화장실,가일리 공중화장실,경기도 가평군 설악면 어비산길 225,경기도 가평군 설악면 가일리 9-2번지,Y,1,2,0,0,0,0,2,0,0,가평군청 자원순환과,,운영시간내,,37.5907904443,127.5117123727,지방자치단체,공공용시설,수세식,N,,N,N,,,2023-04-03
공중화장실,목동터미널 화장실,경기도 가평군 북면 화악산로 10-1,경기도 가평군 북면 목동리 888-1번지,Y,1,2,0,0,0,0,2,0,0,가평군청 자원순환과,,운영시간내,,37.8862365510,127.5497084524,지방자치단체,교통시설,수세식,Y,여자화장실,Y,N,,,2023-04-03
공중화장실,산촌마을 공중화장실,경기도 가평군 북면 백둔로 417-9,경기도 가평군 북면 백둔리 348-1번지,Y,2,1,0,0,0,0,2,0,0,가평군청 자원순환과,,운영시간내,,37.9015093300,127.4629072256,지방자치단체,공공용시설,수세식,N,,N,N,,,2023-04-03
공중화장실,도대리 주차장 화장실,경기도 가평군 북면 도대리 661,경기도 가평군 북면 도대리 661,Y,4,6,0,0,0,0,10,0,0,가평군청 자원순환과,,운영시간내,,37.9274274119,127.4926721721,지방자치단체,공공용시설,수거식,N,,N,N,,,2023-04-03
개방화장실,호반주유소,경기도 가평군 청평면 북한강로 2187,경기도 가평군 청평면 삼회리 85-1번지,Y,4,5,1,0,0,0,5,1,0,호반주유소,,운영시간내,,37.7103751663,127.4002626856,민간,주유소·충전소,수세식,N,,N,N,,,2023-04-03
개방화장실,청평그린주유소,경기도 가평군 청평면 경춘로 524,경기도 가평군 청평면 대성리 56-1번지,Y,4,4,0,0,0,0,8,0,0,청평그린주유소,,운영시간내,,37.7178936788,127.4019205479,민간,주유소·충전소,수세식,N,,N,N,,,2023-04-03
개방화장실,학산주유소,경기도 가평군 청평면 경춘로 257,경기도 가평군 청평면 대성리 343-4번지,Y,1,6,0,0,0,0,4,0,0,학산주유소,,운영시간내,,37.6984719933,127.3843182246,민간,주유소·충전소,수세식,N,,N,N,,,2023-04-03
공중화장실,석룡산 화장실1,경기도 가평군 북면 조무락골길 132,경기도 가평군 북면 적목리 산4번지,Y,1,1,0,0,0,0,1,0,0,가평군 산림과,,24시간,,37.9876525109,127.4545620761,지방자치단체,관광·체육시설,수세식,N,,N,N,,,2023-04-03
공중화장실,농업기술센터,경기도 평택시 오성면 청오로 33-58,경기도 평택시 오성면 청오로 33-58,N,2,1,0,0,0,0,3,0,0,평택시 농업기술센터,,9시간,,37.0143930396,126.9808207215,N,N,N,N,N,N,N,N,,2021-12-31
공중화장실,농업기술센터,경기도 평택시 오성면 청오로 33-58,경기도 평택시 오성면 청오로 33-58,N,4,5,0,0,0,0,4,0,0,평택시 농업기술센터,,9시간,,37.0143930396,126.9808207215,N,N,N,N,N,N,N,N,,2021-12-31
공중화장실,농업기술센터,경기도 평택시 오성면 청오로 33-58,경기도 평택시 오성면 청오로 33-58,N,4,5,0,0,0,0,4,0,0,평택시 농업기술센터,,9시간,,37.0143930396,126.9808207215,N,N,N,N,N,N,N,N,,2021-12-31
공중화장실,농업기술센터,경기도 평택시 오성면 청오로 33-58,경기도 평택시 오성면 청오로 33-58,N,4,5,0,0,0,0,4,0,0,평택시 농업기술센터,,9시간,,37.0143930396,126.9808207215,N,N,N,N,N,N,N,N,,2021-12-31
공중화장실,농업기술센터,경기도 평택시 오성면 청오로 33-58,경기도 평택시 오성면 청오로 33-58,N,2,2,0,0,0,0,1,0,0,평택시 농업기술센터,,9시간,,37.0143930396,126.9808207215,N,N,N,N,N,N,N,N,,2021-12-31
공중화장실,농협은행 안중지점,경기도 평택시 안중읍 안현로서5길 49,경기도 평택시 안중읍 안현로서5길 49,N,1,2,0,0,0,0,2,0,0,농협은행 안중지점,,24시간,,36.9878493457,126.9267262361,N,N,N,N,N,N,N,N,,2021-12-31
공중화장실,농협중앙회 서정지점,경기도 평택시 서정로 229,경기도 평택시 서정로 229,N,4,4,1,1,0,0,4,1,0,농협중앙회 서정지점,,24시간,,37.0660718901,127.0587702753,N,N,N,N,N,N,N,N,,2021-12-31
공중화장실,농협중앙회 송탄지점,경기도 평택시 쇼핑로 25,경기도 평택시 쇼핑로 25,N,1,1,0,0,0,0,1,0,0,농협중앙회 송탄지점,,24시간,,37.0812274289,127.0522469639,N,N,N,N,N,N,N,N,,2021-12-31
공중화장실,농협중앙회 평택기업금융지점,경기도 평택시 경기대로 1194,경기도 평택시 경기대로 1194 장당프라자 1층,N,3,4,0,0,0,0,3,0,0,농협중앙회 평택기업금융지점,,24시간,,37.0532690732,127.0605089259,N,N,N,N,N,N,N,N,,2021-12-31
공중화장실,농협중앙회 평택기업금융지점,경기도 평택시 경기대로 1194,"경기도 평택시 경기대로 1194, 장당프라자 (이충동)",N,3,4,0,0,0,0,3,0,0,농협중앙회 평택기업급융지점,,24시간,,37.0532690732,127.0605089259,N,N,N,N,N,N,N,N,,2021-12-31
공중화장실,뉴송탄주유소,경기도 평택시 삼남로 445,경기도 평택시 삼남로 445,N,1,2,0,0,0,0,2,0,0,뉴송탄주유소,,24시간,,37.0646233083,127.0922764564,N,N,N,N,N,N,N,N,,2021-12-31
공중화장실,다올주유소,경기도 평택시 안중읍 서해로 1408,경기도 평택시 안중읍 서해로 1408,N,1,2,0,0,0,0,1,0,0,다올주유소,,24시간,,37.0182820813,126.9457993726,N,N,N,N,N,N,N,N,,2021-12-31
공중화장실,당산 근린공원,,경기도 평택시 죽백동 728,N,2,3,1,1,0,0,4,1,0,평택시 공원과,,24시간,,37.0090748352,127.1162835098,N,N,N,N,N,N,N,N,,2021-12-31
공중화장실,대성산업(주)평택주유소,경기도 평택시 경기대로 1232,경기도 평택시 경기대로 1232 (이충동),N,1,2,0,0,0,0,2,0,0,대성산업(주)평택주유소,,24시간,,37.0562289385,127.0613691354,N,N,N,N,N,N,N,N,,2021-12-31
공중화장실,대성주유소,경기도 평택시 서탄면 발안로 1192,경기도 평택시 서탄면 발안로 1192,N,2,2,0,0,0,0,1,0,0,대성주유소,,24시간,,37.1350648727,127.0324521497,N,N,N,N,N,N,N,N,,2021-12-31
공중화장실,덕동산 근린공원 농구장,,경기도 평택시 비전동 산 84-14,N,3,3,0,0,0,0,4,0,0,평택시 공원과,,24시간,,36.9976097018,127.0999435279,N,N,N,N,N,N,N,N,,2021-12-31
공중화장실,덕동산 근린공원 명법사,,경기도 평택시 비전동 산 84-14,N,1,2,0,0,0,0,2,0,0,평택시 공원과,,24시간,,36.9976097018,127.0999435279,N,N,N,N,N,N,N,N,,2021-12-31
공중화장실,덕목4리 마을쉼터,,경기도 평택시 현덕면 덕목리 659-2,Y,1,1,0,0,0,0,1,0,0,평택시 공원과,,24시간,,36.9503337516,126.9560203938,N,N,N,N,N,N,N,N,,2021-12-31
공중화장실,덕양주유소,경기도 평택시 현덕면 서동대로 1286,경기도 평택시 현덕면 서동대로 1286,N,2,2,0,0,0,0,2,0,0,덕양주유소,,24시간,,36.9870726487,126.8955384031,N,N,N,N,N,N,N,N,,2021-12-31
공중화장실,덕양주유소,경기도 평택시 안중읍 안중로 152,경기도 평택시 안중읍 안중로 152,Y,2,2,0,0,0,0,2,0,0,덕양주유소,,24시간,,36.9889450972,126.9334041444,N,N,N,N,N,N,N,N,,2021-12-31
공중화장실,델리월드(휴게소),경기도 평택시 청북읍 서해로 1961,경기도 평택시 청북읍 서해로 1961,N,6,3,0,0,0,0,6,0,0,델리월드(휴게소),,24시간,,37.0609657305,126.9196528226,N,N,N,N,N,N,N,N,,2021-12-31
공중화장실,도계주유소,경기도 평택시 팽성읍 팽성로 6,경기도 평택시 팽성읍 팽성로 6,N,1,1,0,0,0,0,1,0,0,도계주유소,,24시간,,36.9386725033,127.0469171979,N,N,N,N,N,N,N,N,,2021-12-31
공중화장실,도계주유소,경기도 평택시 팽성읍 팽성로 6,경기도 평택시 팽성읍 팽성로 6,N,1,1,0,0,0,0,1,0,0,도계주유소,,24시간,,36.9386725033,127.0469171979,N,N,N,N,N,N,N,N,,2021-12-31
공중화장실,도곡근린공원,,경기도 평택시 포승읍 도곡리 11110,N,1,2,0,0,0,0,5,0,0,평택시 공원과,,24시간,,,,N,N,N,N,N,N,N,N,,2021-12-31
공중화장실,도원LPG충전소,경기도 평택시 청원로 1630,경기도 평택시 청원로 1630,Y,1,2,0,0,0,0,1,0,0,도원LPG주유소,,24시간,,37.0440938411,127.1017312014,N,N,N,N,N,N,N,N,,2021-12-31
공중화장실,도일주유소,경기도 평택시 도일로 201,경기도 평택시 도일로 201(도일동),N,1,2,0,0,0,0,1,0,0,도일주유소,,24시간,,37.0559648260,127.1151320106,N,N,N,N,N,N,N,N,,2021-12-31
공중화장실,동방주유소,경기도 평택시 경기대로 1624,경기도 평택시 경기대로 1624,N,2,2,0,0,0,0,2,0,0,동방주유소,,24시간,,37.0892826416,127.0633953754,N,N,N,N,N,N,N,N,,2021-12-31
공중화장실,동부그린 근린공원,,경기도 평택시 비전동 875,N,2,3,0,0,0,0,4,0,0,평택시 공원과,,24시간,,36.9965487542,127.1175567982,N,N,N,N,N,N,N,N,,2021-12-31
공중화장실,동삭근린공원(남),,경기도 평택시 동삭동 산38-2,N,2,3,0,0,0,0,0,1,0,공원과-관리1팀,,24시간,,37.0200236106,127.0944770026,N,N,N,N,N,N,N,N,,2021-12-31
공중화장실,동삭근린공원(여),,경기도 평택시 동삭동 산38-2,N,0,0,0,0,0,0,3,1,0,공원과-관리1팀,,24시간,,37.0200236106,127.0944770026,N,N,N,N,N,N,N,N,,2021-12-31
공중화장실,동양고속버스,경기도 평택시 평택로39번길 40,경기도 평택시 평택로39번길 40,N,2,3,0,0,0,0,2,0,0,동양고속버스,,24시간,,36.9909397208,127.0869164667,N,N,N,N,N,N,N,N,,2021-12-31
공중화장실,동양산업㈜직영해안주유소,경기도 평택시 포승읍 서동대로 376,경기도 평택시 포승읍 서동대로 376,N,2,2,0,0,0,0,2,0,0,동양산업㈜직영해안주유소,,24시간,,36.9378641228,126.8904022902,N,N,N,N,N,N,N,N,,2021-12-31
공중화장실,동영산업㈜직영안일주유,경기도 평택시 안중읍 서동대로 1736,경기도 평택시 안중읍 서동대로 1736,N,2,3,0,0,0,0,2,0,0,동양산업㈜직영안일주유소,,24시간,,36.9911165546,126.9427151786,N,N,N,N,N,N,N,N,,2021-12-31
공중화장실,동흥빌딩,경기도 평택시 안중읍 안현로서8길 23,경기도 평택시 안중읍 안현로서8길 23,N,1,2,0,0,0,0,2,0,0,동흥빌딩,,24시간,,36.9790863294,126.9227808224,N,N,N,N,N,N,N,N,,2021-12-31
공중화장실,라인45주유소,경기도 평택시 팽성읍 팽성로 230,경기도 평택시 팽성읍 팽성로 230,N,1,2,0,0,0,0,2,0,0,라인45주유소,,24시간,,36.9548526209,127.0611087832,N,N,N,N,N,N,N,N,,2021-12-31
공중화장실,만호LPG충전소,경기도 평택시 포승읍 서동대로 771,경기도 평택시 포승읍 서동대로 771,N,1,1,0,0,0,0,1,0,0,만호LPG충전소,,24시간,,36.9591915640,126.8561408050,N,N,N,N,N,N,N,N,,2021-12-31
공중화장실,만호근린공원,,경기도 평택시 포승읍 만호리 681,Y,1,1,1,1,0,0,1,1,0,평택시 공원과,,24시간,,36.9698021631,126.8606667620,N,N,N,N,N,N,N,N,,2021-12-31
공중화장실,만호파출소,경기도 평택시 포승읍 평택항로 170,경기도 평택시 포승읍 평택항로 170,N,1,1,0,0,0,0,1,0,0,평택경찰서 만호파출소,,24시간,,36.9743754233,126.8436544077,N,N,N,N,N,N,N,N,,2021-12-31
공중화장실,명품주유소,,경기도 평택시 경기대로 969,N,1,1,0,0,0,0,1,0,0,명품주유소,,24시간,,,,N,N,N,N,N,N,N,N,,2021-12-31
공중화장실,모산근린공원,,경기도 평택시 동삭동 396,N,2,3,1,1,0,0,6,1,0,평택시 공원과,,24시간,,37.0141586006,127.0932564327,N,N,N,N,N,N,N,N,,2021-12-31
공중화장실,무림통운㈜주유소,,경기도 평택시 도일유존길69(도일동),N,2,2,0,0,0,0,1,0,0,무림통운㈜주유소,,24시간,,,,N,N,N,N,N,N,N,N,,2021-12-31
공중화장실,무지개 어린이공원,,경기도 평택시 비전동 852,Y,3,3,0,0,0,0,3,0,0,평택시 공원과,,24시간,,36.9921305685,127.1110910972,N,N,N,N,N,N,N,N,,2021-12-31
공중화장실,문화촌 어린이공원,,경기도 평택시 비전동 867,N,1,1,0,0,0,0,2,0,0,평택시 공원과,,24시간,,36.9978322973,127.1133122729,N,N,N,N,N,N,N,N,,2021-12-31
공중화장실,물장구 어린이공원,,경기도 평택시 비전동 1087,N,1,2,1,1,0,0,4,1,0,평택시 공원과,,24시간,,37.0009347348,127.1103059243,N,N,N,N,N,N,N,N,,2021-12-31
공중화장실,미라클상가,경기도 평택시 평택로 23,경기도 평택시 평택로 23,N,3,3,0,0,0,0,3,0,0,미라클상가,,24시간,,36.9896465541,127.0883281314,N,N,N,N,N,N,N,N,,2021-12-31
공중화장실,민영주유소,경기도 평택시 삼남로 360,경기도 평택시 삼남로 360,N,1,1,0,0,0,0,1,0,0,민영주유소,,24시간,,37.0578610382,127.0944496539,N,N,N,N,N,N,N,N,,2021-12-31
공중화장실,믿음주유소,경기도 평택시 고덕면 청원로 673,경기도 평택시 고덕면 청원로 673(동청리),Y,2,2,0,0,0,0,2,0,0,믿음주유소,,24시간,,37.0541596138,127.0029423845,N,N,N,N,N,N,N,N,,2021-12-31
공중화장실,반지산근린공원,,경기도 평택시 이충동662,N,2,3,0,0,0,0,3,0,0,평택시 공원과,,24시간,,37.0587344830,127.0647858357,N,N,N,N,N,N,N,N,,2021-12-31
공중화장실,방죽골어린이공원,,경기도 평택시 안중읍 현화리 840-2,N,2,3,0,0,0,0,2,0,0,평택시 공원과,,24시간,,36.9809083964,126.9241602985,N,N,N,N,N,N,N,N,,2021-12-31
공중화장실,배다리도서관,,경기도 평택시 죽백로 23,N,3,4,1,1,0,0,7,1,0,평택시 도서관,,13시간,,,,N,N,N,N,N,N,N,N,,2021-12-31
공중화장실,배다리도서관,,경기도 평택시 죽백로 22,N,3,4,1,1,0,0,7,1,0,평택시 도서관,,13시간,,,,N,N,N,N,N,N,N,N,,2021-12-31
공중화장실,배다리도서관,,경기도 평택시 죽백로 21,N,3,4,1,1,0,0,7,1,0,평택시 도서관,,13시간,,,,N,N,N,N,N,N,N,N,,2021-12-31
공중화장실,배다리도서관,,경기도 평택시 죽백로 20,N,2,1,0,0,0,0,2,0,0,평택시 도서관,,13시간,,,,N,N,N,N,N,N,N,N,,2021-12-31
공중화장실,배다리생태공원 영상정보사업소,,경기도 평택시 죽백동 800,N,4,4,1,1,0,0,8,1,0,평택시 공원과,,24시간,,37.0008813075,127.1191922987,N,N,N,N,N,N,N,N,,2021-12-31
공중화장실,배다리생태공원 주차장,,경기도 평택시 죽백동 800,N,2,3,0,0,0,0,5,0,0,평택시 공원과,,24시간,,37.0008813075,127.1191922987,N,N,N,N,N,N,N,N,,2021-12-31
공중화장실,백련주유소,경기도 평택시 청원로 1394,경기도 평택시 청원로 1394,N,1,2,0,0,0,0,2,0,0,백련주유소,,24시간,,37.0520607821,127.0777793657,N,N,N,N,N,N,N,N,,2021-12-31
공중화장실,봉골근린공원(남),,경기도 평택시 고덕면 여염리 1683,N,0,3,2,0,0,0,6,0,0,공원과-관리2팀,,24시간,,37.0543796109,127.0513139815,N,N,N,N,N,N,N,N,,2021-12-31
공중화장실,봉골근린공원(여),경기도 평택시 삼성1로 190,경기도 평택시 고덕면 삼성1로 190,N,0,0,0,0,0,0,5,1,0,공원과-관리2팀,,24시간,,37.0266911385,127.0619212884,N,N,N,N,N,N,N,N,,2021-12-31
공중화장실,부락산 근린공원 야외무대 화장실(남),,경기도 평택시 이충동 279-1,N,3,3,0,0,0,0,6,0,0,공원과-관리2팀,,24시간,,37.0650133640,127.0676131564,N,N,N,N,N,N,N,N,,2021-12-31
공중화장실,부락산 문화공원(여),경기도 평택시 지산로140번길 264,경기도 평택시 지산로140번길 264(지산동),N,0,0,0,0,0,0,8,2,0,공원과-관리2팀,,24시간,,37.0709249506,127.0745024953,N,N,N,N,N,N,N,N,,2021-12-31
공중화장실,부락산 분수공원,,경기도 평택시 이충동279-2,N,4,3,0,0,0,0,4,0,0,평택시 공원과,,24시간,,37.0648150695,127.0677254266,N,N,N,N,N,N,N,N,,2021-12-31
공중화장실,부락산문화공원,,경기도 평택시 지산동 519-7,N,1,2,0,0,0,0,2,0,0,평택시 공원과,,24시간,,37.0707939895,127.0748596912,N,N,N,N,N,N,N,N,,2021-12-31
공중화장실,부락산문화공원 간이,,경기도 평택시 지산동 519-6,N,1,2,0,0,0,0,2,0,0,평택시 공원과,,24시간,,37.0715957947,127.0750853463,N,N,N,N,N,N,N,N,,2021-12-31
공중화장실,부락산문화공원 산림체험장,,경기도 평택시 지산동 519-7,N,1,3,0,0,0,0,4,0,0,평택시 공원과,,24시간,,37.0707939895,127.0748596912,N,N,N,N,N,N,N,N,,2021-12-31
공중화장실,부락종합사회복지관,경기도 평택시 서정로 303,경기도 평택시 서정로 303,N,3,3,0,0,0,0,3,0,0,부락종합사회복지관,,24시간,,37.0654181063,127.0672667031,N,N,N,N,N,N,N,N,,2021-12-31
공중화장실,부락종합사회복지관,경기도 평택시 서정로 303,경기도 평택시 서정로 303,N,2,2,0,0,0,0,2,0,0,부락종합사회복지관,,24시간,,37.0654181063,127.0672667031,N,N,N,N,N,N,N,N,,2021-12-31
공중화장실,부영상가,,경기도 평택시 세교공원로 66,N,9,9,0,0,0,0,8,0,0,부영상가,,24시간,,37.0041207485,127.0849119670,N,N,N,N,N,N,N,N,,2021-12-31
공중화장실,블루에너지 충전소,경기도 평택시 청원로 1409,경기도 평택시 청원로 1409,N,2,4,0,0,0,0,4,0,0,블루에너지 충전소,,24시간,,37.0525901501,127.0796208826,N,N,N,N,N,N,N,N,,2021-12-31
공중화장실,비둘기근린공원,,경기도 평택시 청북읍 어연리 888,N,3,2,0,0,0,0,3,0,0,평택시 공원과,,24시간,,37.0495109521,126.9728781186,N,N,N,N,N,N,N,N,,2021-12-31
공중화장실,비원주유소,경기도 평택시 현덕면 안현로 238,경기도 평택시 현덕면 안현로 238,N,3,4,0,0,0,0,4,0,0,비원주유소,,24시간,,36.9728126347,126.9228394388,N,N,N,N,N,N,N,N,,2021-12-31
공중화장실,식사동행정복지센터 장애인 화장실,경기도 고양시 일산동구 위시티2로11번길 22-21,"경기도 고양시 일산동구 위시티2로11번길 22-21 (식사동, 식사동주민센터), 1층",N,1,0,1,1,0,0,1,1,0,일산동구 식사동 행정복지센터,031-8075-6709,09시~18시,,37.6773424570,126.8137081946,N,N,N,N,N,N,N,N,,2022-04-08
공중화장실,식사동행정복지센터 2층 화장실,경기도 고양시 일산동구 위시티2로11번길 22-21,"경기도 고양시 일산동구 위시티2로11번길 22-21 (식사동, 식사동주민센터), 2층 민원실 앞",N,1,2,0,1,0,0,3,1,0,일산동구 식사동 행정복지센터,031-8075-6709,09시~18시,,37.6773424570,126.8137081946,N,N,N,N,N,N,N,N,,2022-04-08
공중화장실,식사동행정복지센터 3층 화장실,경기도 고양시 일산동구 위시티2로11번길 22-21,"경기도 고양시 일산동구 위시티2로11번길 22-21 (식사동, 식사동주민센터), 3층",N,1,2,0,1,0,0,3,0,0,일산동구 식사동 행정복지센터,031-8075-6709,09시~18시,,37.6773424570,126.8137081946,N,N,N,N,N,N,N,N,,2022-04-08
공중화장실,식사동행정복지센터 4층 화장실,경기도 고양시 일산동구 위시티2로11번길 22-21,"경기도 고양시 일산동구 위시티2로11번길 22-21 (식사동, 식사동주민센터), 4층",N,1,2,0,1,0,0,3,0,0,일산동구 식사동 행정복지센터,031-8075-6709,09시~18시,,37.6773424570,126.8137081946,N,N,N,N,N,N,N,N,,2022-04-08
공중화장실,비전1동 주민센터,경기도 평택시 비전2로 330,경기도 평택시 비전2로 330,N,2,2,1,1,0,0,3,1,0,평택시 비전1동,,9시간,,37.0109376842,127.1121780994,N,N,N,N,N,N,N,N,,2021-12-31
공중화장실,비전1동 주민센터,경기도 평택시 비전2로 330,경기도 평택시 비전2로 330,N,2,2,1,1,0,0,2,1,0,평택시 비전1동,,9시간,,37.0109376842,127.1121780994,N,N,N,N,N,N,N,N,,2021-12-31
공중화장실,중산동행정복지센터,경기도 고양시 일산동구 중산로 224,경기도 고양시 일산동구 중산로224,N,8,8,1,0,0,0,8,1,0,일산동구 중산동 행정복지센터,031-8075-6733,09시~18시,,37.6918176882,126.7804438059,N,N,N,N,N,N,N,N,,2022-04-08
공중화장실,정발산동 행정복지센터 1층,경기도 고양시 일산동구 일산로 422,"경기도 고양시 일산동구 일산로 422 (정발산동, 정발산동주민센터), 1층",N,2,3,0,0,0,0,2,0,0,정발산동 행정복지센터,031-8075-6763,09시~18시,,37.6724625611,126.7798256534,N,N,N,N,N,N,N,N,,2022-04-08
공중화장실,비전파출소,경기도 평택시 평택5로 189,경기도 평택시 평택5로 189,Y,1,1,0,0,0,0,1,0,0,평택경찰서 비전파출소,,24시간,,36.9963401363,127.1030030667,N,N,N,N,N,N,N,N,,2021-12-31
공중화장실,사군자근린공원,,경기도 평택시 동삭동 710,N,2,3,1,1,0,0,4,1,0,평택시 공원과,,24시간,,37.0079381437,127.0972264326,N,N,N,N,N,N,N,N,,2021-12-31
공중화장실,삼정1리 마을쉼터,,경기도 평택시 안중읍 삼정리 산75-4,N,1,1,0,0,0,0,1,0,0,평택시 공원과,,24시간,,,,N,N,N,N,N,N,N,N,,2021-12-31
공중화장실,상가 어린이 공원,경기도 평택시 세교3로 32,경기도 평택시 세교동 562-6,Y,1,2,0,0,0,0,1,0,0,평택시 공원과,,24시간,,36.9999895845,127.0816077126,N,N,N,N,N,N,N,N,,2021-12-31
공중화장실,상서재2호수변(여),,경기도 평택시 동삭동 870,N,0,0,0,0,0,0,3,1,0,공원과-관리1팀,,24시간,,37.0169322160,127.1063393675,N,N,N,N,N,N,N,N,,2021-12-31
공중화장실,상서재근린(남),,경기도 평택시 동삭동 853,N,2,3,0,0,0,0,0,1,0,공원과-관리1팀,,24시간,,37.0206847434,127.1015348620,N,N,N,N,N,N,N,N,,2021-12-31
공중화장실,상서재근린(여),,경기도 평택시 동삭동 853,N,0,0,0,0,0,0,3,1,0,공원과-관리1팀,,24시간,,37.0206847434,127.1015348620,N,N,N,N,N,N,N,N,,2021-12-31
공중화장실,상서재마당근린(남),,경기도 평택시 동삭동 843-1,N,2,3,0,0,0,0,0,1,0,공원과-관리1팀,,24시간,,37.0143224305,127.1024704987,N,N,N,N,N,N,N,N,,2021-12-31
공중화장실,상서재마당근린(여),,경기도 평택시 동삭동 843-1,N,0,0,0,0,0,0,3,1,0,공원과-관리1팀,,24시간,,37.0143224305,127.1024704987,N,N,N,N,N,N,N,N,,2021-12-31
공중화장실,상서재서초근린(남),,경기도 평택시 동삭동 858,N,2,3,0,0,0,0,0,1,0,공원과-관리1팀,,24시간,,37.0187178410,127.1045888042,N,N,N,N,N,N,N,N,,2021-12-31
공중화장실,상서재서초근린(여),,경기도 평택시 동삭동 858,N,0,0,0,0,0,0,3,1,0,공원과-관리1팀,,24시간,,37.0187178410,127.1045888042,N,N,N,N,N,N,N,N,,2021-12-31
공중화장실,상선주유소,경기도 평택시 청북읍 서해로 1914,경기도 평택시 청북읍 서해로 1914,Y,2,1,0,0,0,0,2,0,0,상선주유소,,24시간,,37.0587527587,126.9242811448,N,N,N,N,N,N,N,N,,2021-12-31
공중화장실,새터근린공원,경기도 평택시 청북읍 안청로2길 60,경기도 평택시 청북읍 옥길리 1142,N,3,4,1,1,0,0,6,1,0,평택시 공원과,,24시간,,37.0206736777,126.9181382480,N,N,N,N,N,N,N,N,,2021-12-31
공중화장실,새한 어린이공원,,경기도 평택시 비전동 885-1,N,1,1,1,1,0,0,1,1,0,평택시 공원과,,24시간,,36.9923326056,127.1166630467,N,N,N,N,N,N,N,N,,2021-12-31
공중화장실,생기자리근린공원,,경기도 평택시 용이동 656,N,2,3,1,1,0,0,5,1,0,평택시 공원과,,24시간,,36.9959657584,127.1239142117,N,N,N,N,N,N,N,N,,2021-12-31
공중화장실,서당제어린이공원,,경기도 평택시 안중읍 현화리 824-4,N,2,3,0,0,0,0,2,0,0,평택시 공원과,,24시간,,36.9829051418,126.9188568275,N,N,N,N,N,N,N,N,,2021-12-31
공중화장실,서두몰(서정)근린공원,,경기도 평택시 서정동201-7,N,2,2,0,0,0,0,2,0,0,평택시 공원과,,24시간,,37.0631246387,127.0608428896,N,N,N,N,N,N,N,N,,2021-12-31
공중화장실,서두물근린공원(여),,경기도 평택시 서정동 201-7,N,0,0,0,0,0,0,2,0,0,공원과-관리2팀,,24시간,,37.0631246387,127.0608428896,N,N,N,N,N,N,N,N,,2021-12-31
공중화장실,서부운동장,경기도 평택시 청북읍 서해로 1528-18,경기도 평택시 서해로1528-18,N,8,8,0,0,0,0,8,0,0,안출지역경제과,,24시간,,37.0305474753,126.9432254895,N,N,N,N,N,N,N,N,,2021-12-31
공중화장실,서정근린공원(남),,경기도 평택시 서정동 201-7,N,2,2,0,0,0,0,2,0,0,공원과-관리2팀,,24시간,,37.0631246387,127.0608428896,N,N,N,N,N,N,N,N,,2021-12-31
공중화장실,서정동 주민센터,경기도 평택시 탄현로 170,경기도 평택시 탄현로 170,N,1,1,0,0,0,0,1,0,0,평택시 서정동,,9시간,,37.0677693021,127.0546771013,N,N,N,N,N,N,N,N,,2021-12-31
공중화장실,서정동 주민센터,경기도 평택시 탄현로 170,경기도 평택시 탄현로 170,N,1,2,1,1,0,0,2,1,0,평택시 서정동,,9시간,,37.0677693021,127.0546771013,N,N,N,N,N,N,N,N,,2021-12-31
공중화장실,서정동 주민센터,경기도 평택시 탄현로 170,경기도 평택시 탄현로 170,N,1,2,1,1,0,0,2,1,0,평택시 서정동,,9시간,,37.0677693021,127.0546771013,N,N,N,N,N,N,N,N,,2021-12-31
공중화장실,서정리시장 공중화장실,경기도 평택시 서정역로47번길 7,경기도 평택시 서정역로 47번길 7,N,2,3,0,0,0,0,2,0,0,일자리창출과,,24시간,,37.0577744382,127.0551966636,N,N,N,N,N,N,N,N,,2021-12-31
공중화장실,서정리역 공중화장실,,경기도 평택시 서정동 477-2,N,2,3,1,1,0,0,4,1,0,평택시 송탄출장소 지역경제과,,24시간,,37.0642918946,127.0497798805,N,N,N,N,N,N,N,N,,2021-12-31
공중화장실,서정시장공영주차장,경기도 평택시 서정역로 37,경기도 평택시 서정역로 37,N,2,2,0,0,0,0,3,0,0,서정시장공영주차장,,24시간,,37.0574151400,127.0555361813,N,N,N,N,N,N,N,N,,2021-12-31
공중화장실,서정침례교회,경기도 평택시 서정역로26번길 24-12,경기도 평택시 서정역로26번길 24-12,N,7,6,0,0,0,0,7,0,0,서정침례교회,,24시간,,37.0557335068,127.0566144640,N,N,N,N,N,N,N,N,,2021-12-31
공중화장실,서탄 119 안전센타,경기도 평택시 서탄면 서탄로 241,경기도 평택시 서탄면 서탄로 241,Y,3,3,1,1,0,0,3,1,0,서탄119안전센타,,24시간,,37.1058411603,127.0370998726,N,N,N,N,N,N,N,N,,2021-12-31
공중화장실,정발산동 행정복지센터 3층,경기도 고양시 일산동구 일산로 422,"경기도 고양시 일산동구 일산로 422 (정발산동, 정발산동주민센터), 3층",N,2,3,0,0,0,0,2,0,0,정발산동 행정복지센터,031-8075-6765,09시~18시,,37.6724625611,126.7798256534,N,N,N,N,N,N,N,N,,2022-04-08
공중화장실,장항1동 행정복지센터 화장실,경기도 고양시 일산동구 장항로225번길 72,경기도 고양시 일산동구 장항로225번길 72,N,3,5,1,1,0,0,4,1,0,일산동구 장항1동 행정복지센터,031-8075-6916,09시~18시,,37.6416253179,126.7705456419,N,N,N,N,N,N,N,N,,2022-04-08
공중화장실,마두2동 행정복지센터 1층~3층 각 남녀화장실(6개),경기도 고양시 일산동구 강송로 166,"경기도 고양시 일산동구 강송로 166 (마두동, 마두2동주민센터)",N,4,6,0,0,0,0,6,0,0,일산동구 마두2동주민센터,031-8075-6895,09시~18시,,37.6535899607,126.7844518842,N,N,N,N,N,N,N,N,,2022-04-08
공중화장실,백석1동행정복지센터 화장실,경기도 고양시 일산동구 일산로 145,"경기도 고양시 일산동구 일산로 145 (백석동, 백석1동주민센터)",N,3,3,0,0,0,0,4,1,0,일산동구 백석1동행정복지센터,031-8075-6813,09시~18시,,37.6496275642,126.7924930655,N,N,N,N,N,N,N,N,,2022-04-08
공중화장실,마두1동행정복지센터 2층 화장실,경기도 고양시 일산동구 일산로 218,"경기도 고양시 일산동구 일산로 218(마두동, 마두1동 행정복지센터)",N,2,3,0,0,0,0,2,0,0,마두1동행정복지센터,031-8075-6872,09시~18시,,37.6558124586,126.7897928913,N,N,N,N,N,N,N,N,,2022-04-08
공중화장실,고봉동 행정복지센터 화장실,경기도 고양시 일산동구 성현로 397-2,경기도 고양시 일산동구 성현로 397-2 (문봉동),N,2,2,1,1,0,0,2,1,0,고봉동행정복지센터,031-8075-6953,09시~18시,,37.7013803791,126.8277344705,N,N,N,N,N,N,N,N,,2022-04-08
공중화장실,장항2동행정복지센터 1층,경기도 고양시 일산동구 노루목로 114,경기도 고양시 일산동구 노루목로 114,N,0,0,1,1,0,0,1,1,0,장항2동행정복지센터,031-8075-6940,09시~18시,,37.6498842164,126.7783206813,N,N,N,N,N,N,N,N,,2022-04-08
공중화장실,장항2동행정복지센터 3층,경기도 고양시 일산동구 노루목로 114,경기도 고양시 일산동구 노루목로 114,N,1,1,0,0,0,0,1,0,0,장항2동행정복지센터,031-8075-6940,09시~18시,,37.6498842164,126.7783206813,N,N,N,N,N,N,N,N,,2022-04-08
공중화장실,장항2동행정복지센터 4층,경기도 고양시 일산동구 노루목로 114,경기도 고양시 일산동구 노루목로 114,N,1,2,0,0,0,0,3,0,0,장항2동행정복지센터,031-8075-6940,09시~18시,,37.6498842164,126.7783206813,N,N,N,N,N,N,N,N,,2022-04-08
공중화장실,백석2동 행정복지센터 2층,경기도 고양시 일산동구 장백로 72,"경기도 고양시 일산동구 장백로 72 3층(백석동, 백석2동주민센터)",N,1,2,0,0,0,0,3,0,0,백석2동 행정복지센터,031-8075-6843,09시~18시,,37.6439070415,126.7854969250,N,N,N,N,N,N,N,N,,2022-04-08
공중화장실,백석2동 행정복지센터 4층,경기도 고양시 일산동구 장백로 72,"경기도 고양시 일산동구 장백로 72 5층(백석동, 백석2동주민센터)",N,1,3,0,0,0,0,3,0,0,백석2동 행정복지센터,031-8075-6843,09시~18시,,37.6439070415,126.7854969250,N,N,N,N,N,N,N,N,,2022-04-08
공중화장실,풍산동행정복지센터 화장실,경기도 고양시 일산동구 숲속마을1로 36,"경기도 고양시 일산동구 숲속마을1로 36 (풍산동, 풍산동주민센터)",N,4,3,0,1,0,0,4,0,0,고양시 풍산동행정복지센터,031-8075-6783,09시~18시,,37.6640837216,126.7998617107,N,N,N,N,N,N,N,N,,2022-04-08
공중화장실,숲향기공원,,경기도 고양시 덕양구 향동동 359-49,N,3,1,1,0,0,0,2,1,0,공원관리과2팀,031-8075-4329,24시간,,37.5962244853,126.8874517681,N,N,N,N,N,N,N,N,,2022-04-08
공중화장실,향동체육공원,,경기도 고양시 덕양구 향동동 371-2,N,2,3,1,0,0,0,1,1,0,공원관리과2팀,031-8075-4329,24시간,,37.6085021729,126.8941712912,N,N,N,N,N,N,N,N,,2022-04-08
공중화장실,행신나루공원,경기도 고양시 덕양구 권율대로 215-2,"경기도 고양시 덕양구 권율대로 215-2, 근린공원4호 화장실 (행신동)",N,2,3,1,0,1,0,8,1,1,고양시 공원관리과 공원1팀,031-8075-4321,24시간,,37.6159423984,126.8484013975,N,N,N,N,N,N,N,N,,2022-04-08
공중화장실,서두물공원(생태연못 옆),경기도 고양시 덕양구 중앙로 400-2,"경기도 고양시 덕양구 중앙로 400-2, 근린공원화장실 (행신동)",N,2,3,0,0,0,0,8,1,1,고양시 공원관리과 공원1팀,031-8075-4321,24시간,,37.6165881617,126.8510925260,N,N,N,N,N,N,N,N,,2022-04-08
공중화장실,서정공원(인라인스케이트장 옆),경기도 고양시 덕양구 중앙로 418-2,"경기도 고양시 덕양구 중앙로 418-2, 서정공원개방화장실 (행신동)",N,2,3,1,0,0,0,7,1,0,고양시 공원관리과 공원1팀,031-8075-4321,24시간,,37.6173605513,126.8489555744,N,N,N,N,N,N,N,N,,2022-04-08
공중화장실,성라공원(7지역 관리사건물),경기도 고양시 덕양구 고양대로1432번길 84-18,"경기도 고양시 덕양구 고양대로1432번길 84-18, 성라공원개방화장실 (성사동)",N,1,2,0,0,0,0,2,0,0,고양시 공원관리과 공원1팀,031-8075-4321,24시간,,37.6471148087,126.8443090704,N,N,N,N,N,N,N,N,,2022-04-08
공중화장실,성라공원(9지역),경기도 고양시 덕양구 고양대로1432번길 114,경기도 고양시 덕양구 고양대로1432번길 114(성사동),N,2,3,1,0,0,0,3,0,0,고양시 공원관리과 공원1팀,031-8075-4321,24시간,,37.6492042667,126.8456396716,N,N,N,N,N,N,N,N,,2022-04-08
공중화장실,성라공원(5지역),경기도 고양시 덕양구 고양대로1432번길 114,경기도 고양시 덕양구 고양대로1432번길 114(성사동),N,2,3,1,0,0,0,3,0,0,고양시 공원관리과 공원1팀,031-8075-4321,24시간,,37.6492042667,126.8456396716,N,N,N,N,N,N,N,N,,2022-04-08
공중화장실,고양공원(배드민턴장 근처),경기도 고양시 덕양구 동헌로 436,경기도 고양시 덕양구 동헌로 436,N,1,1,0,0,0,0,2,0,0,고양시 공원관리과 공원1팀,031-8075-4321,24시간,,37.7058368565,126.9003218618,N,N,N,N,N,N,N,N,,2022-04-08
공중화장실,고양공원(관리동화장실),경기도 고양시 덕양구 동헌로 436,경기도 고양시 덕양구 동헌로 436,N,1,2,0,0,0,0,3,0,0,고양시 공원관리과 공원1팀,031-8075-4321,24시간,,37.7058368565,126.9003218618,N,N,N,N,N,N,N,N,,2022-04-08
공중화장실,별빛공원(관리사 옆),경기도 고양시 덕양구 호국로 506-2,"경기도 고양시 덕양구 호국로 506-2, 별빛공원개방화장실 (화정동)",N,2,3,0,0,0,0,2,0,0,고양시 공원관리과 공원1팀,031-8075-4321,24시간,,37.6330656884,126.8255850365,N,N,N,N,N,N,N,N,,2022-04-08
공중화장실,달빛공원(공원입구 좌측),경기도 고양시 덕양구 화수로 11-2,"경기도 고양시 덕양구 화수로 11-2, 달빛공원개방화장실 (화정동)",N,2,3,1,0,0,0,2,1,0,고양시 공원관리과 공원1팀,031-8075-4321,24시간,,37.6449857477,126.8311222242,N,N,N,N,N,N,N,N,,2022-04-08
공중화장실,가라산공원(경로당),경기도 고양시 덕양구 화신로 148,경기도 고양시 덕양구 화신로 148,N,1,3,1,0,0,0,3,1,0,고양시 공원관리과 공원1팀,031-8075-4321,24시간,,37.6251815778,126.8419973614,N,N,N,N,N,N,N,N,,2022-04-08
공중화장실,가라산공원(관리사),경기도 고양시 덕양구 화신로 148,경기도 고양시 덕양구 화신로 148,N,1,2,1,0,0,0,3,1,0,고양시 공원관리과 공원1팀,031-8075-4321,24시간,,37.6251815778,126.8419973614,N,N,N,N,N,N,N,N,,2022-04-08
공중화장실,소만공원,경기도 고양시 덕양구 충경로 126-2,"경기도 고양시 덕양구 충경로 126-2, 소만공원개방화장실 (행신동)",N,2,3,0,0,0,0,3,0,0,고양시 공원관리과 공원1팀,031-8075-4321,24시간,,37.6152415070,126.8439092122,N,N,N,N,N,N,N,N,,2022-04-08
공중화장실,고양어린이박물관,경기도 고양시 덕양구 화중로 26,경기도 고양시 덕양구 화중로 26,N,5,8,3,3,3,4,12,3,10,고양어린이박물관,031-839-0300,10~18,,37.6294819266,126.8309552119,N,N,N,N,N,N,N,N,,2022-04-08
공중화장실,아람누리,,경기도 고양시 덕양구 중앙로 1286,N,89,134,5,0,0,1,158,6,1,고양문화재단,031-1577-7766,8~21,,,,N,N,N,N,N,N,N,N,,2022-04-08
공중화장실,어울림뜨레,경기도 고양시 덕양구 어울림로 33,경기도 고양시 덕양구 어울림로 33,N,1,1,0,0,1,0,2,0,1,고양문화재단,031-1577-7766,8~21,,37.6490659292,126.8354045961,N,N,N,N,N,N,N,N,,2022-04-08
공중화장실,어울림누리공연장,경기도 고양시 덕양구 어울림로 33,경기도 고양시 덕양구 어울림로 33,N,28,34,1,0,1,0,67,2,1,고양문화재단,031-1577-7766,8~21,,37.6490659292,126.8354045961,N,N,N,N,N,N,N,N,,2022-04-08
공중화장실,화정어린이도서관 2층,경기도 고양시 덕양구 화신로 323,경기도 고양시 덕양구 화신로323,N,2,3,1,0,0,0,3,0,0,고양시 덕양구청,,9시간,,37.6328445759,126.8263237055,N,N,N,N,N,N,N,N,,2022-04-08
공중화장실,화정어린이도서관 1층,경기도 고양시 덕양구 화신로 323,경기도 고양시 덕양구 화신로323,N,4,1,1,1,1,0,3,0,0,고양시 덕양구청,,9시간,,37.6328445759,126.8263237055,N,N,N,N,N,N,N,N,,2022-04-08
공중화장실,화정도서관 2층,경기도 고양시 덕양구 은빛로77번길 8,경기도 고양시 덕양구 은빛로 77번길 8,N,2,3,1,1,0,0,2,1,0,고양시 덕양구청,,16시간,,37.6378448576,126.8370913452,N,N,N,N,N,N,N,N,,2022-04-08
공중화장실,화정도서관 1층,경기도 고양시 덕양구 은빛로77번길 8,경기도 고양시 덕양구 은빛로 77번길 8,N,2,3,1,1,1,0,2,1,0,고양시 덕양구청,,16시간,,37.6378448576,126.8370913452,N,N,N,N,N,N,N,N,,2022-04-08
공중화장실,화정도서관 지하1층,경기도 고양시 덕양구 은빛로77번길 8,경기도 고양시 덕양구 은빛로 77번길 8,N,2,3,1,1,0,0,2,1,0,고양시 덕양구청,,16시간,,37.6378448576,126.8370913452,N,N,N,N,N,N,N,N,,2022-04-08
공중화장실,행신어린이도서관 3층,경기도 고양시 덕양구 소원로181번길 42,경기도 고양시 덕양구 소원로 181번길 42,N,2,2,0,0,0,0,2,2,1,고양시 덕양구청,,9시간,,37.6147883415,126.8434599674,N,N,N,N,N,N,N,N,,2022-04-08
공중화장실,행신어린이도서관 2층,경기도 고양시 덕양구 소원로181번길 42,경기도 고양시 덕양구 소원로 181번길 42,N,2,2,0,0,0,0,2,2,1,고양시 덕양구청,,9시간,,37.6147883415,126.8434599674,N,N,N,N,N,N,N,N,,2022-04-08
공중화장실,행신도서관(3층),경기도 고양시 덕양구 행당로33번길 25-6,경기도 고양시 덕양구 행당로33번길 25-6,N,2,3,0,0,0,0,3,0,0,고양시 덕양구청,031-8075-5245,16시간,,37.6207691332,126.8283250582,N,N,N,N,N,N,N,N,,2022-04-08
공중화장실,행신도서관(2층),경기도 고양시 덕양구 행당로33번길 25-6,경기도 고양시 덕양구 행당로33번길 25-6,N,3,4,0,0,0,0,3,0,0,고양시 덕양구청,031-8075-5245,16시간,,37.6207691332,126.8283250582,N,N,N,N,N,N,N,N,,2022-04-08
공중화장실,원당도서관 3층,경기도 고양시 덕양구 호국로790번길 49-9,경기도 고양시 덕양구 호국로 790번길 49-9,N,2,3,0,0,0,0,4,0,0,고양시 덕양구청,,16시간,,37.6562958751,126.8388432787,N,N,N,N,N,N,N,N,,2022-04-08
공중화장실,원당도서관 1층,경기도 고양시 덕양구 호국로790번길 49-9,경기도 고양시 덕양구 호국로 790번길 49-9,N,2,3,0,0,0,0,0,0,0,고양시 덕양구청,,16시간,,37.6562958751,126.8388432787,N,N,N,N,N,N,N,N,,2022-04-08
공중화장실,신원도서관 2층,경기도 고양시 덕양구 신원2로 24,경기도 고양시 덕양구 신원2로 24 신원도서관 2층,N,2,3,0,0,0,0,5,0,0,고양시 덕양구청,031-8075-9333,16,,37.6663861525,126.8863642061,N,N,N,N,N,N,N,N,,2022-04-08
공중화장실,신원도서관 1층,경기도 고양시 덕양구 신원2로 24,경기도 고양시 덕양구 신원2로 24 신원도서관 1층,N,2,2,1,1,0,2,5,1,1,고양시 덕양구청,031-8075-9333,16,,37.6663861525,126.8863642061,N,N,N,N,N,N,N,N,,2022-04-08
공중화장실,삼송도서관 3층,경기도 고양시 덕양구 덕수천1로 73,경기도 고양시 덕양구 덕수천 1로 73,N,2,2,0,0,0,0,5,0,0,고양시 덕양구청,,16시간,,37.6488653963,126.8848420219,N,N,N,N,N,N,N,N,,2022-04-08
공중화장실,삼송도서관 1층,경기도 고양시 덕양구 덕수천1로 73,경기도 고양시 덕양구 덕수천 1로 73,N,2,3,1,1,1,1,4,1,1,고양시 덕양구청,,16시간,,37.6488653963,126.8848420219,N,N,N,N,N,N,N,N,,2022-04-08
공중화장실,덕양구청6층,경기도 고양시 덕양구 화중로104번길 13,경기도 고양시 덕양구 화중로104번길 13,N,4,5,0,1,0,0,3,0,0,경기도 고양시 덕양구청,,24시간,,37.6374571807,126.8322777968,N,N,N,N,N,N,N,N,,2022-04-08
공중화장실,덕양구청5층,경기도 고양시 덕양구 화중로104번길 13,경기도 고양시 덕양구 화중로104번길 13,N,3,3,1,1,0,0,2,1,0,경기도 고양시 덕양구청,,24시간,,37.6374571807,126.8322777968,N,N,N,N,N,N,N,N,,2022-04-08
공중화장실,덕양구청3층,경기도 고양시 덕양구 화중로104번길 13,경기도 고양시 덕양구 화중로104번길 13,N,4,5,0,1,0,0,3,0,0,경기도 고양시 덕양구청,,24시간,,37.6374571807,126.8322777968,N,N,N,N,N,N,N,N,,2022-04-08
공중화장실,덕양구청2층(대강당),경기도 고양시 덕양구 화중로104번길 13,경기도 고양시 덕양구 화중로104번길 13,N,4,4,0,1,0,0,4,0,0,경기도 고양시 덕양구청,,24시간,,37.6374571807,126.8322777968,N,N,N,N,N,N,N,N,,2022-04-08
공중화장실,덕양구청2층(주계단),경기도 고양시 덕양구 화중로104번길 13,경기도 고양시 덕양구 화중로104번길 13,N,4,5,0,1,0,0,3,0,0,경기도 고양시 덕양구청,,24시간,,37.6374571807,126.8322777968,N,N,N,N,N,N,N,N,,2022-04-08
공중화장실,덕양구청1층(세무민원),경기도 고양시 덕양구 화중로104번길 13,경기도 고양시 덕양구 화중로104번길 13,N,4,4,0,1,0,0,4,0,0,경기도 고양시 덕양구청,,24시간,,37.6374571807,126.8322777968,N,N,N,N,N,N,N,N,,2022-04-08
공중화장실,덕양구청1층(일반민원),경기도 고양시 덕양구 화중로104번길 13,경기도 고양시 덕양구 화중로104번길 13,N,4,5,0,1,0,0,3,0,0,경기도 고양시 덕양구청,,24시간,,37.6374571807,126.8322777968,N,N,N,N,N,N,N,N,,2022-04-08
공중화장실,도내동주유소,경기도 고양시 덕양구 중앙로 316,경기도 고양시 덕양구 도내동703,N,2,3,0,0,0,0,2,0,0,민간,031-972-1555,00:00~24:00,,37.6119668395,126.8581461040,N,N,N,N,N,N,N,N,,2022-04-08
공중화장실,GS LPG 충전소,경기도 고양시 덕양구 중앙로 246,경기도 고양시 덕양구 화전동 735,N,3,2,0,0,0,0,1,0,0,민간,02-3158-0083,00:00~24:00,,37.6080625835,126.8645355928,N,N,N,N,N,N,N,N,,2022-04-08
공중화장실,GS 주유소,경기도 고양시 덕양구 중앙로 110,경기도 고양시 덕양구 화전동 175-15,N,1,1,0,0,0,0,2,0,0,민간,02-3159-9774,06:00~24:00,,37.5989411238,126.8746726891,N,N,N,N,N,N,N,N,,2022-04-08
공중화장실,강선공원,,경기도 고양시 일산서구 주엽동 78,N,2,2,1,0,0,0,3,0,0,고양시 공원관리과,031-8075-4339,24시간,,37.6711720709,126.7620696172,N,N,N,N,N,N,N,N,,2022-04-08
공중화장실,주엽공원,경기도 고양시 일산서구 주화로 65-3,경기도 고양시 일산서구 주엽동 118,N,2,4,1,0,0,0,5,0,0,고양시 공원관리과,031-8075-4339,24시간,,37.6686738539,126.7603821956,N,N,N,N,N,N,N,N,,2022-04-08
공중화장실,성저근린공원,경기도 고양시 일산서구 일산로 655,경기도 고양시 일산서구 일산로 655 (대화동),N,1,2,1,0,0,0,2,0,0,고양시 공원관리과,031-8075-4339,24시간,,37.6823207861,126.7562320415,N,N,N,N,N,N,N,N,,2022-04-08
공중화장실,대화레포츠공원 화장실,경기도 고양시 일산서구 대화로156번길 39,경기도 고양시 일산서구 대화로156번길 39 (대화동),N,2,3,1,0,0,0,3,0,0,고양시 공원관리과,031-8075-4339,24시간,,37.6699225428,126.7370908694,N,N,N,N,N,N,N,N,,2022-04-08
공중화장실,샘물공원,경기도 고양시 일산서구 하이파크로 113-1,경기도 고양시 일산서구 덕이동 1525,N,1,3,1,0,0,0,4,1,0,일산서구 환경녹지과,,24시간,,37.7037184247,126.7520137924,N,N,N,N,N,N,N,N,,2022-04-08
공중화장실,탄중공원,경기도 고양시 일산서구 탄중로233번길 16,경기도 고양시 일산서구 탄현동 1501,N,1,3,1,0,0,1,3,1,0,일산서구 환경녹지과,,24시간,,37.6942291933,126.7709833731,N,N,N,N,N,N,N,N,,2022-04-08
공중화장실,숯고개 어린이공원,경기도 고양시 일산서구 홀트로 16-2,경기도 고양시 일산서구 탄현동 1486,N,2,3,1,0,0,0,4,1,0,일산서구 환경녹지과,,24시간,,37.6939839077,126.7663125986,N,N,N,N,N,N,N,N,,2022-04-08
공중화장실,황룡공원,경기도 고양시 일산서구 탄현로 73,경기도 고양시 일산서구 탄현동 1475,N,1,3,1,0,0,1,3,1,0,일산서구 환경녹지과,,24시간,,37.6976586056,126.7673313048,N,N,N,N,N,N,N,N,,2022-04-08
공중화장실,강서공원,,경기도 고양시 일산서구 대화동 2265,N,2,2,1,0,0,0,3,1,0,일산서구 환경녹지과,,24시간,,37.6721911845,126.7507315304,N,N,N,N,N,N,N,N,,2022-04-08
공중화장실,장성공원,,경기도 고양시 일산서구 대화동 2166,N,1,3,1,0,0,0,3,1,0,일산서구 환경녹지과,,24시간,,37.6767988850,126.7538830830,N,N,N,N,N,N,N,N,,2022-04-08
공중화장실,새말공원,경기도 고양시 일산서구 일산로636번길 37-32,"경기도 고양시 일산서구 일산로636번길 37-32, 새말어린이공원 화장실 (대화동)",N,2,2,1,1,1,0,3,1,3,일산서구 환경녹지과,,24시간,,37.6841819444,126.7583682773,N,N,N,N,N,N,N,N,,2022-04-08
공중화장실,백암공원,,경기도 고양시 일산서구 주엽동 130,N,3,3,1,0,0,1,3,1,1,일산서구 환경녹지과,,24시간,,37.6695523835,126.7553276512,N,N,N,N,N,N,N,N,,2022-04-08
공중화장실,오마공원,경기도 고양시 일산서구 주엽로 219,경기도 고양시 일산서구 주엽동 3,N,2,3,1,0,0,1,3,1,0,일산서구 환경녹지과,,24시간,,37.6781016743,126.7606252086,N,N,N,N,N,N,N,N,,2022-04-08
공중화장실,강재공원,경기도 고양시 일산서구 강성로 126,경기도 고양시 일산서구 주엽동 52,N,1,3,1,0,0,2,3,1,0,일산서구 환경녹지과,,24시간,,37.6725502166,126.7633713390,N,N,N,N,N,N,N,N,,2022-04-08
공중화장실,조종면 종합복지회관,경기도 가평군 조종면 현창로 62,경기도 가평군 조종면 현리 293-4번지,Y,0,0,0,0,0,0,0,0,0,조종면사무소,,운영시간내,,37.8200547651,127.3472585464,지방자치단체,공공용시설,수세식,N,,N,N,,,2023-04-03
공중화장실,조종면 파출소,경기도 가평군 조종면 현창로 43,경기도 가평군 조종면 현리 267-5번지,Y,0,0,0,0,0,0,0,0,0,가평경찰서 경무과,,운영시간내,,37.8186314821,127.3478750236,국가,공공용시설,수세식,N,,N,N,,,2023-04-03
공중화장실,조종면 우체국,경기도 가평군 조종면 현창로 31,경기도 가평군 조종면 현리 410-8번지,Y,2,5,0,0,0,0,2,0,0,조종면 우체국,,운영시간내,,37.8174063093,127.3483547311,국가,공공용시설,수세식,N,,N,N,,,2023-04-03
공중화장실,조종119안전센터,경기도 가평군 조종면 현창로 14,경기도 가평군 조종면 현리 413-20번지,Y,1,2,0,0,0,0,2,0,0,조종119안전센터,,운영시간내,,37.8161644012,127.3498456353,국가,공공용시설,수세식,N,,N,N,,,2023-04-03
공중화장실,운악리 보건진료소,경기도 가평군 조종면 현등사길 7-16,경기도 가평군 조종면 운악리 449-3번지,Y,3,3,1,0,0,0,4,1,0,보건소 보건행정,,운영시간내,,37.8647621231,127.3489739898,지방자치단체,공공용시설,수세식,N,,N,N,,,2023-04-03
공중화장실,조종면 보건지소,경기도 가평군 조종면 조종내길 71,경기도 가평군 조종면 현리 567-7번지,Y,3,3,1,0,0,0,3,1,0,가평군 보건소,,운영시간내,,37.8177188880,127.3531942157,지방자치단체,공공용시설,수세식,N,,N,N,,,2023-04-03
공중화장실,설악면사무소,경기도 가평군 설악면 한서로 8,경기도 가평군 설악면 신천리 156-1번지,Y,3,3,1,0,0,0,4,1,0,설악면사무소,,운영시간내,,37.6761934621,127.4946928236,민간,공공용시설,수세식,N,,N,N,,,2023-04-03
공중화장실,설악면 보건지소,경기도 가평군 설악면 한서로 6,경기도 가평군 설악면 신천리 156-1번지,Y,3,3,1,0,0,0,3,1,0,가평군 보건소,,운영시간내,,37.6758509350,127.4943072834,지방자치단체,공공용시설,수세식,N,,N,N,,,2023-04-03
공중화장실,분당정자청소년수련관,경기도 성남시 분당구 성남대로407번길 12,성남시 분당구 성남대로407번길 12,N,3,4,1,1,0,0,4,1,0,성남시청 자원순환과,,06시~22시,,37.3727615925,127.1063249576,N,N,N,N,N,N,N,N,,2021-12-31
공중화장실,성남장례식장,경기도 성남시 중원구 순암로 800,성남시 중원구 순암로 800,N,3,3,1,1,0,0,6,1,0,성남시청 자원순환과,,24시간,,37.4209275290,127.1830928280,N,N,N,N,N,N,N,N,,2021-12-31
공중화장실,청솔종합사회복지관,,성남시 분당구 미금로 246,N,1,3,1,1,0,0,2,1,0,성남시청 자원순환과,,08시~20시,,37.3537301444,127.1107828584,N,N,N,N,N,N,N,N,,2021-12-31
공중화장실,분당종합사회복지관,경기도 성남시 분당구 정자일로 33,성남시 분당구 정자일로 33,N,3,4,1,1,0,0,4,1,0,성남시청 자원순환과,,05시~21시,,37.3529918089,127.1055813728,N,N,N,N,N,N,N,N,,2021-12-31
공중화장실,한솔종합사회복지관 본관,경기도 성남시 분당구 내정로 94,성남시 분당구 내정로 94,N,2,3,1,1,0,0,3,1,0,성남시청 자원순환과,,09시~20시,,37.3673855464,127.1161331986,N,N,N,N,N,N,N,N,,2021-12-31
공중화장실,판교종합사회복지관,경기도 성남시 분당구 운중로 254,성남시 분당구 운중로 254(판교동),N,2,3,1,1,0,0,5,1,0,성남시청 자원순환과,,09시~22시,,37.3890154559,127.0909781203,N,N,N,N,N,N,N,N,,2021-12-31
공중화장실,수정중앙노인종합복지관,경기도 성남시 수정구 성남대로1480번길 38,성남시 수정구 성남대로 1480번길 38,N,2,3,1,1,0,0,2,1,0,성남시청 자원순환과,,9시~18시,,37.4615076099,127.1304429245,N,N,N,N,N,N,N,N,,2021-12-31
공중화장실,분당노인종합복지관,경기도 성남시 분당구 불정로 50,성남시 분당구 불정로 50(정자동 253번지),N,4,5,1,1,0,0,9,1,0,성남시청 자원순환과,,9시~18시,,37.3575937083,127.1125018777,N,N,N,N,N,N,N,N,,2021-12-31
공중화장실,신흥1동 행정복지센터,경기도 성남시 수정구 수정로188번길 7,성남시 수정구 수정로188번길 7(신흥동),N,1,2,1,1,0,0,2,1,0,성남시청 자원순환과,,09시~18시,,37.4430536236,127.1411828715,N,N,N,N,N,N,N,N,,2021-12-31
공중화장실,대현 테크노월드,경기도 의왕시 오전공업길 19,경기도 의왕시 오전동 174번지,N,4,4,1,1,0,0,6,1,0,개인,031-477-9500,영업중,,37.3552300033,126.9661519779,N,N,N,N,N,N,N,N,,2022-04-06
공중화장실,청계동 주민센터,경기도 의왕시 안양판교로 232,경기도 의왕시 포일동 602-15번지,N,2,3,1,1,0,0,2,1,0,청계동 주민센터,031-345-3271,근무중,,37.3887314964,126.9963702124,N,N,N,N,N,N,N,N,,2022-04-06
공중화장실,우신빌딩,경기도 의왕시 부곡중앙로 47,경기도 의왕시 삼동 208-7번지,Y,1,2,0,0,0,0,1,0,0,개인,031-461-2835,영업중,,37.3213287897,126.9542362944,N,N,N,N,N,N,N,N,,2022-04-06
공중화장실,SK빌딩,,경기도 의왕시 삼동 462-55번지 부곡대우이안아파트,N,2,2,0,0,0,0,2,0,0,새마을금고,031-459-8800,영업중,,37.3232068978,126.9568976827,N,N,N,N,N,N,N,N,,2022-04-06
공중화장실,설악 119지역대,경기도 가평군 설악면 한서로 12 (신천리),경기도 가평군 설악면 신천리 156-1번지,Y,3,3,1,0,0,0,3,1,0,가평소방서,,운영시간내,,37.6756436587,127.4950103856,국가,공공용시설,수세식,N,,N,N,,,2023-04-03
공중화장실,방일리 보건진료소,경기도 가평군 설악면 양방가루재길 4-18 (방일보건진료소),경기도 가평군 설악면 방일리 215-12번지 방일보건진료소,Y,3,3,1,0,0,0,3,1,0,가평군 보건소,,운영시간내,,37.6228610232,127.4966797314,지방자치단체,공공용시설,수세식,N,,N,N,,,2023-04-03
공중화장실,테니스장 옆 주차장,경기도 가평군 설악면 선촌리 589-1,경기도 가평군 설악면 선촌리 589-1,Y,2,3,1,0,0,0,2,1,0,가평군청 자원순환과,,운영시간내,,37.6817359246,127.4854835118,국가,공공용시설,수세식,N,,N,N,,,2023-04-03
공중화장실,미사리 보건진료소,"경기도 가평군 설악면 미사리로 629 (미사리, 미사보건진료소)",경기도 가평군 설악면 미사리 308번지 미사보건진료소,Y,0,0,0,0,0,0,0,0,0,가평군 보건소,,운영시간내,,37.7071027890,127.5396390939,지방자치단체,공공용시설,수세식,N,,N,N,,,2023-04-03
공중화장실,율길리 보건지소,경기도 가평군 상면 청군로 2043-15,경기도 가평군 상면 율길리 611-1번지,Y,2,1,0,0,0,0,2,0,0,가평군 보건소 보건행정,,운영시간내,,37.8329991954,127.2897634506,지방자치단체,공공용시설,수세식,N,,N,N,,,2023-04-03
공중화장실,가평소방서 상면지대,경기도 가평군 상면 청군로 1105,경기도 가평군 상면 연하리 171-1번지,Y,3,3,1,0,0,0,3,1,0,가평소방서,,운영시간내,,37.8047902610,127.3575024611,국가,공공용시설,수세식,N,,N,N,,,2023-04-03
공중화장실,상면사무소,경기도 가평군 상면 청군로 1105,경기도 가평군 상면 연하리 171-1번지,Y,2,2,1,0,0,0,3,1,0,상면사무소,,운영시간내,,37.8047902610,127.3575024611,지방자치단체,공공용시설,수세식,N,,N,N,,,2023-04-03
공중화장실,상면복지회관,경기도 가평군 상면 청군로 1103,,Y,2,2,1,0,0,0,2,1,0,사면사무소 총무팀,,운영시간내,,,,지방자치단체,공공용시설,수세식,N,,N,N,,,2023-04-03
공중화장실,상면 파출소,경기도 가평군 상면 청군로 1101,경기도 가평군 상면 연하리 171-31번지,Y,2,3,0,0,0,0,2,0,0,가평경찰서 경무과,,운영시간내,,37.8048711871,127.3573432680,국가,공공용시설,수세식,N,,N,N,,,2023-04-03
공중화장실,상면보건지소,경기도 가평군 상면 청군로 1099,경기도 가평군 상면 연하리 171-1번지,Y,1,3,1,0,0,0,2,1,0,가평군 보건소,,운영시간내,,37.8050067831,127.3576724427,지방자치단체,공공용시설,수세식,N,,N,N,,,2023-04-03
공중화장실,태봉리 보건진료소,경기도 가평군 상면 아랫벌길 11,경기도 가평군 상면 태봉리 353-4번지,Y,3,4,0,0,0,0,3,0,0,가평군 보건소 보건행정,,운영시간내,,37.7969467766,127.3352319348,지방자치단체,공공용시설,수세식,N,,N,N,,,2023-04-03
공중화장실,화악리 보건진료소,"경기도 가평군 북면 화악지암길 4 (화악리, 화악보건진료소)",경기도 가평군 북면 화악리 472-4번지 화악보건진료소,Y,3,4,1,0,0,0,6,1,0,가평군보건소 보건행정,,운영시간내,,37.9254796295,127.5672689151,지방자치단체,공공용시설,수세식,N,,N,N,,,2023-04-03
공중화장실,북면파출소,경기도 가평군 북면 화악산로 6,경기도 가평군 북면 목동리 848번지,Y,1,2,0,0,0,0,4,0,0,가평경찰서 경무과,,운영시간내,,37.8858580403,127.5496172198,국가,공공용시설,수세식,N,,N,N,,,2023-04-03
공중화장실,북면 보건지소,경기도 가평군 북면 화악산로 23,경기도 가평군 북면 목동리 883-13번지,Y,2,2,0,0,0,0,3,0,0,가평군보건소 보건행정,,운영시간내,,37.8873809743,127.5502664741,지방자치단체,공공용시설,수세식,N,,N,N,,,2023-04-03
공중화장실,북면사무소,경기도 가평군 북면 화악산로 2,경기도 가평군 북면 목동리 848번지,Y,2,2,0,0,0,0,1,0,0,북면사무소 총무팀,,운영시간내,,37.8858127630,127.5501175687,지방자치단체,공공용시설,수세식,N,,N,N,,,2023-04-03
공중화장실,북면 체력단련실,경기도 가평군 북면 목동복지로 9-1,경기도 가평군 북면 목동리 847-4번지,Y,5,6,1,0,0,0,5,1,0,북면사무소 총무팀,,운영시간내,,37.8853802659,127.5498102265,지방자치단체,공공용시설,수세식,N,,N,N,,,2023-04-03
공중화장실,북면 복지회관,경기도 가평군 북면 목동복지로 36-12,경기도 가평군 북면 목동리 866-2번지,Y,2,3,0,0,0,0,4,0,0,북면사무소 총무팀,,운영시간내,,37.8863710094,127.5514257664,지방자치단체,공공용시설,수세식,N,,N,N,,,2023-04-03
공중화장실,도대리 보건진료소,경기도 가평군 북면 가화로 2370-14,경기도 가평군 북면 도대리 311-14번지,Y,3,6,0,0,0,0,8,0,0,가평군보건소 보건행정,,운영시간내,,37.9532928902,127.4781111908,지방자치단체,공공용시설,수세식,N,,N,N,,,2023-04-03
개방화장실,삼우상가,경기도 의왕시 포일로 81,경기도 의왕시 포일동 539-10번지,N,2,3,0,0,0,0,3,0,0,개인,031-422-9062,24시간,,37.3915329856,126.9813602889,N,N,N,N,N,N,N,N,,2022-04-06
공중화장실,에스케이오케이충전소,경기도 성남시 분당구 대왕판교로 131,성남시 분당구 대왕판교로 131 (금곡동),N,2,3,0,0,0,0,2,1,0,성남시청 자원순환과,,00시-24시,,37.3551494534,127.1012002189,N,N,N,N,N,N,N,N,,2021-12-31
공중화장실,위례에너지,경기도 성남시 수정구 헌릉로 970,성남시 수정구 헌릉로 970 (복정동),N,2,2,0,0,0,0,2,0,0,성남시청 자원순환과,,00시-24시,,37.4632401127,127.1398086352,N,N,N,N,N,N,N,N,,2021-12-31
공중화장실,환  상어린이공원,,성남시 분당구 삼평동 626,N,1,1,1,1,0,0,2,1,0,성남시청 자원순환과,,24시,,37.4015526735,127.1020996530,N,N,N,N,N,N,N,N,,2021-12-31
개방화장실,제중빌딩,경기도 성남시 수정구 수정로 210,성남시 수정구 수정로 210 (신흥동),N,1,1,0,0,0,0,1,0,0,성남시청 자원순환과,,08:00~19:00,,37.4441683513,127.1431785363,N,N,N,N,N,N,N,N,,2021-12-31
개방화장실,제일프라자,경기도 성남시 수정구 수정남로 10,성남시 수정구 수정남로 10 (수진동),N,10,8,0,0,0,0,12,0,0,성남시청 자원순환과,,07:00~24:00,,37.4390327828,127.1292647901,N,N,N,N,N,N,N,N,,2021-12-31
공중화장실,탄천종합운동장-주경기장,경기도 성남시 분당구 탄천로 215,성남시 분당구 탄천로 215,N,3,4,1,1,0,0,3,1,0,성남시청 자원순환과,,6시~20시,,37.4118468016,127.1205620946,N,N,N,N,N,N,N,N,,2021-12-31
개방화장실,젤존타워Ⅲ,경기도 성남시 분당구 성남대로331번길 3-3,성남시 분당구 성남대로331번길 3-3 (정자동),N,2,2,0,0,0,0,2,0,0,성남시청 자원순환과,,8:00~22:00,,37.3653297931,127.1077076750,N,N,N,N,N,N,N,N,,2021-12-31
개방화장실,하나프라자,경기도 성남시 분당구 느티로 27,성남시 분당구 느티로 27 (정자동),N,2,3,1,1,0,0,3,1,0,성남시청 자원순환과,,24시간,,37.3688264929,127.1075087701,N,N,N,N,N,N,N,N,,2021-12-31
공중화장실,청계사 언덕,경기도 의왕시 청계로 475,경기도 의왕시 청계동 11번지,N,1,3,1,1,0,0,5,1,0,청소과,031-345-2863,24시간,,37.4120725443,127.0348717747,N,N,N,N,N,N,N,N,,2022-04-06
공중화장실,현대셀프 주유소,경기도 의왕시 철도박물관로 14,경기도 의왕시 삼동 428-2번지,N,1,2,0,0,0,0,3,0,0,개인,031-461-4551,영업중,,37.3254040937,126.9486309837,N,N,N,N,N,N,N,N,,2022-04-06
공중화장실,오전동 주민센터,경기도 의왕시 찬우물길 11,경기도 의왕시 오전동 844-18번지,N,1,2,1,1,0,0,2,1,0,오전동 주민센터,031-345-3171,근무중,,37.3536047164,126.9715494624,N,N,N,N,N,N,N,N,,2022-04-06
공중화장실,백운호수 궁도장 앞,경기도 의왕시 의일로 145,경기도 의왕시 학의동 477-9번지,N,1,3,1,1,0,0,3,1,0,청소과,031-345-2863,24시간,,37.3835275087,127.0106716819,N,N,N,N,N,N,N,N,,2022-04-06
공중화장실,자연학습공원 트레일러,,경기도 의왕시 월암동 543-3번지,N,1,1,1,1,0,0,2,1,0,청소과,031-345-2863,24시간,,37.3058272694,126.9527798459,N,N,N,N,N,N,N,N,,2022-04-06
개방화장실,유스페이스,경기도 성남시 분당구 대왕판교로 660,성남시 분당구 대왕판교로 660 (삼평동),N,3,3,1,1,0,0,7,1,0,성남시청 자원순환과,,6:00∼24:00,,37.4005799752,127.1068799859,N,N,N,N,N,N,N,N,,2021-12-31
개방화장실,동강프라자,경기도 성남시 중원구 도촌남로 27,성남시 중원구 도촌남로 27,N,3,4,0,0,0,0,3,0,0,성남시청 자원순환과,,24시간,,37.4145173800,127.1506194060,N,N,N,N,N,N,N,N,,2021-12-31
개방화장실,월드비터빌딩,경기도 성남시 분당구 정자로 13,성남시 분당구 정자로 13(정자동),N,1,2,1,0,0,0,0,0,0,성남시청 자원순환과,,24시간,,37.3637207088,127.1063157290,N,N,N,N,N,N,N,N,,2021-12-31
개방화장실,아산웰빙프라자,경기도 성남시 분당구 구미로 191,성남시 분당구 구미로 191(구미동),N,3,3,1,0,0,0,0,0,0,성남시청 자원순환과,,06:00~23:00,,37.3441581980,127.1278237166,N,N,N,N,N,N,N,N,,2021-12-31
공중화장실,롯데마트서현점장,경기도 성남시 분당구 황새울로311번길 28,성남시 분당구 황새울로311번길 28,N,5,6,1,1,0,0,11,1,0,성남시청 자원순환과,,10시-22시,,37.3860224815,127.1206018998,N,N,N,N,N,N,N,N,,2021-12-31
공중화장실,NC백화점,경기도 성남시 분당구 야탑로81번길 11,성남시 분당구 야탑로81번길 11,N,20,27,1,1,0,0,50,1,0,성남시청 자원순환과,,09시-22시,,37.4109403922,127.1274822762,N,N,N,N,N,N,N,N,,2021-12-31
공중화장실,더샵 스타파크 쇼핑몰,,성남시 분당구 정자일로 121,N,1,1,1,1,0,0,1,1,0,성남시청 자원순환과,,00시-24시,,37.3607975353,127.1055066479,N,N,N,N,N,N,N,N,,2021-12-31
공중화장실,테마폴리스,경기도 성남시 분당구 성남대로925번길 16,성남시 분당구 야탑동 341,N,3,4,1,1,0,0,7,1,0,성남시청 자원순환과,,24시간,,37.4130939326,127.1272456048,N,N,N,N,N,N,N,N,,2021-12-31
공중화장실,현대시장 보물창고건물 공용화장실,경기도 성남시 수정구 수정북로 18,성남시 수정구 수정북로 18,N,1,1,0,0,0,0,1,0,0,성남시청 자원순환과,,10시-22시,,37.4417002998,127.1319760487,N,N,N,N,N,N,N,N,,2021-12-31
공중화장실,현대시장공용화장실,경기도 성남시 수정구 제일로 176,성남시 수정구 제일로 176,N,2,2,0,0,0,0,3,0,0,성남시청 자원순환과,,00시-24시,,37.4421045368,127.1315331854,N,N,N,N,N,N,N,N,,2021-12-31
공중화장실,금광시장,경기도 성남시 중원구 산성대로426번길 5,성남시 중원구 금광2동 4622외8필지,N,2,2,0,0,0,0,3,0,0,성남시청 자원순환과,,24시간,,37.4500315079,127.1599060365,N,N,N,N,N,N,N,N,,2021-12-31
공중화장실,동신종합시장,경기도 성남시 분당구 돌마로 361,성남시 분당구 돌마로 361,N,2,2,1,1,0,0,2,1,0,성남시청 자원순환과,,10시-20시,,37.3706164267,127.1229608786,N,N,N,N,N,N,N,N,,2021-12-31
공중화장실,코코프라자시장,경기도 성남시 분당구 서현로210번길 20,성남시 분당구 서현로210번길 20,N,3,4,1,1,0,0,4,1,0,성남시청 자원순환과,,00시-24시,,37.3858531759,127.1240368127,N,N,N,N,N,N,N,N,,2021-12-31
개방화장실,청평하나주유소,경기도 가평군 청평면 경춘로 1232,경기도 가평군 청평면 상천리 1136번지,Y,0,0,0,0,0,0,0,0,0,청평하나주유소,,운영시간내,,37.7666035853,127.4474878832,민간,주유소·충전소,수세식,N,,N,N,,,2023-04-03
개방화장실,가평대박주유소,경기도 가평군 청평면 경춘로 1175,경기도 가평군 청평면 상천리 1157-3번지,Y,1,1,1,0,0,0,2,1,0,가평대박주유소,,운영시간내,,37.7634915300,127.4421879984,민간,주유소·충전소,수세식,N,,N,N,,,2023-04-03
개방화장실,대성주유소,경기도 가평군 청평면 경춘로 110,경기도 가평군 청평면 대성리 399-89번지,Y,2,3,1,0,0,0,0,1,0,대성주유소,,운영시간내,,37.6855059755,127.3795295274,민간,주유소·충전소,수세식,N,,N,N,,,2023-04-03
개방화장실,대성주유소,경기도 가평군 조종면 청군로 1186,경기도 가평군 조종면 현리 477-100번지,Y,0,0,0,0,0,0,0,0,0,대성주유소,,운영시간내,,37.8111922702,127.3523323579,민간,주유소·충전소,수세식,N,,N,N,,,2023-04-03
개방화장실,태양주유소,경기도 가평군 설악면 한서로 25 (신천리),경기도 가평군 설악면 신천리 122-1번지,Y,2,4,1,0,0,0,4,1,0,태양주유소,,운영시간내,,37.6761304383,127.4965866377,민간,주유소·충전소,수세식,N,,N,N,,,2023-04-03
개방화장실,설악IC주유소,경기도 가평군 설악면 유명로 867,경기도 가평군 설악면 방일리 248-1번지,Y,1,1,1,0,0,0,1,1,0,설악IC주유소,,운영시간내,,37.6212295198,127.4949007061,민간,주유소·충전소,수세식,N,,N,N,,,2023-04-03
개방화장실,삼밭골 주유소,경기도 가평군 설악면 유명로 2005 (회곡리),경기도 가평군 설악면 회곡리 243-8번지,Y,2,3,0,0,0,0,1,0,0,삼밭골 주유소,,운영시간내,,37.6875630760,127.4643070156,민간,주유소·충전소,수세식,N,,N,N,,,2023-04-03
개방화장실,가평설악IC주유소,경기도 가평군 설악면 신천중앙로 30,경기도 가평군 설악면 신천리 363-8번지,Y,1,1,1,0,0,0,1,1,0,가평설악IC주유소,,운영시간내,,37.6724617241,127.4914499583,민간,주유소·충전소,수세식,N,,N,N,,,2023-04-03
개방화장실,상면주유소,경기도 가평군 상면 청군로 1070,경기도 가평군 상면 연하리 11-9번지,Y,4,2,0,0,0,0,4,0,0,상면주유소,,운영시간내,,37.8053352583,127.3610229819,민간,주유소·충전소,수세식,N,,N,N,,,2023-04-03
개방화장실,운악산 주유소,경기도 가평군 상면 조종로 1622,경기도 가평군 상면 율길리 139번지,Y,1,1,0,0,0,0,2,0,0,운악산 주유소,,운영시간내,,37.8288222674,127.2978661048,민간,주유소·충전소,수세식,N,,N,N,,,2023-04-03
개방화장실,명지산 주유소,경기도 가평군 북면 가화로 687,경기도 가평군 북면 이곡리 580-1번지,Y,4,4,1,0,0,0,8,1,0,명지산 주유소,,운영시간내,,37.8727525186,127.5213647304,민간,주유소·충전소,수세식,N,,N,N,,,2023-04-03
개방화장실,가평셀프주유소,경기도 가평군 가평읍 경춘로 2065 (하색리),경기도 가평군 가평읍 하색리 39-1번지,Y,0,0,0,0,0,0,0,0,0,가평셀프주유소,,운영시간내,,37.8159356089,127.5021132760,민간,주유소·충전소,수세식,N,,N,N,,,2023-04-03
개방화장실,이화주유소,"경기도 가평군 가평읍 경춘로 2021 (하색리, 이화주유소)",경기도 가평군 가평읍 하색리 290-1번지 이화주유소,Y,3,4,1,0,0,0,3,3,0,이화주유소,,운영시간내,,37.8131054843,127.4991025049,민간,주유소·충전소,수세식,N,,N,N,,,2023-04-03
개방화장실,가평군농협주유소,"경기도 가평군 가평읍 경춘로 1785 (상색리, 가평군농협주유소)",경기도 가평군 가평읍 상색리 271-3번지 가평군농협주유소,Y,1,3,1,0,0,0,3,3,1,가평군농협주유소,,운영시간내,,37.7984576597,127.4819621742,민간,주유소·충전소,수세식,N,,N,N,,,2023-04-03
개방화장실,(주)오일유업,경기도 가평군 가평읍 경춘로 1776,경기도 가평군 가평읍 상색리 273-3번지,Y,0,0,0,0,0,0,0,0,0,(주)오일유업,,운영시간내,,37.7976374853,127.4821441133,민간,주유소·충전소,수세식,N,,N,N,,,2023-04-03
개방화장실,가평주유소,"경기도 가평군 가평읍 가화로 41-16 (대곡리, 가평주유소)",경기도 가평군 가평읍 대곡리 219-5번지 가평주유소,Y,0,0,0,0,0,0,0,0,0,가평주유소,,운영시간내,,37.8232443639,127.5149646415,민간,주유소·충전소,수세식,N,,N,N,,,2023-04-03
개방화장실,청평그린충전소,경기도 가평군 청평면 경춘로 524,경기도 가평군 청평면 대성리 56-1번지,Y,1,2,0,0,0,0,3,3,0,청평그린충전소,,운영시간내,,37.7178936788,127.4019205479,민간,주유소·충전소,수세식,N,,N,N,,,2023-04-03
개방화장실,에너지뱅크 충전소,경기도 가평군 청평면 경춘로 1050,경기도 가평군 청평면 하천리 278번지,Y,2,3,1,0,0,0,2,1,0,에너지뱅크 충전소,,운영시간내,,37.7537898426,127.4356113774,민간,주유소·충전소,수세식,N,,N,N,,,2023-04-03
공중화장실,상천역,경기도 가평군 청평면 상천역로 29,경기도 가평군 청평면 상천리 1260-1번지,Y,1,1,0,0,0,0,1,0,0,상천역,,운영시간내,,37.7701126759,127.4545479094,공공기관,교통시설,수세식,N,,N,N,,,2023-04-03
공중화장실,대성리역,경기도 가평군 청평면 경춘로 88,경기도 가평군 청평면 대성리 393-3번지,Y,1,1,0,0,0,0,2,0,0,대성리역,,운영시간내,,37.6840905758,127.3792369406,공공기관,교통시설,수세식,N,,N,Y,여자화장실,,2023-04-03
공중화장실,가평역,"경기도 가평군 가평읍 문화로 13-42 (달전리, 가평역사)",경기도 가평군 가평읍 달전리 603-2번지 가평역사,Y,0,0,0,0,0,0,0,0,0,가평역,,운영시간내,,37.8142766897,127.5109863848,공공기관,교통시설,수세식,N,,N,N,,,2023-04-03
공중화장실,가평시외버스터미널,경기도 가평군 가평읍 가화로 51 (대곡리),경기도 가평군 가평읍 대곡리 168-9번지,Y,0,0,0,0,0,0,0,0,0,교통과,031-580-2456,운영시간내,,37.8245782470,127.5154762392,민간,교통시설,수세식,Y,여자화장실,N,N,,,2023-04-03
공중화장실,청평파출소,경기도 가평군 청평면 청평중앙로 33,경기도 가평군 청평면 청평리 462-3번지,Y,0,0,0,0,0,0,0,0,0,가평경찰서 경무과,,운영시간내,,37.7373479172,127.4183403216,국가,공공용시설,수세식,N,,N,N,,,2023-04-03
공중화장실,청평면 119지역대,경기도 가평군 청평면 은고개로 19,경기도 가평군 청평면 청평리 333-1번지,Y,0,0,0,0,0,0,0,0,0,가평소방서,,운영시간내,,37.7404433736,127.4241708104,국가,공공용시설,수세식,N,,N,N,,,2023-04-03
공중화장실,청평면 보건지소,경기도 가평군 청평면 은고개로 19,경기도 가평군 청평면 청평리 333-1번지,Y,0,0,0,0,0,0,0,0,0,가평군보건소 보건행정,,운영시간내,,37.7404433736,127.4241708104,지방자치단체,공공용시설,수세식,N,,N,N,,,2023-04-03
공중화장실,청평면사무소,경기도 가평군 청평면 은고개로 19,경기도 가평군 청평면 청평리 333-1번지,Y,1,2,1,0,0,0,1,1,0,청평면 총무팀,,운영시간내,,37.7404433736,127.4241708104,지방자치단체,공공용시설,수세식,N,,N,N,,,2023-04-03
공중화장실,삼회리 보건진료소,경기도 가평군 청평면 북한강로2010번길 18,경기도 가평군 청평면 삼회리 226-3번지,Y,2,2,1,0,0,0,2,1,0,가평군 보건소 보건행정,,운영시간내,,37.6955154211,127.3936922386,지방자치단체,공공용시설,수세식,N,,N,N,,,2023-04-03
공중화장실,일산시장,경기도 고양시 일산서구 일청로12번길 9,경기도 고양시 일산서구 일청로12번길 9,N,3,3,0,0,0,0,4,0,0,일산시장,031-975-3903,24시간,,37.6856296581,126.7708293857,N,N,N,N,N,N,N,N,,2022-04-08
공중화장실,㈜휴세코 일산지점 희망충전소,경기도 고양시 일산서구 경의로 912,경기도 고양시 일산서구 경의로 912,N,2,3,1,1,0,0,2,1,1,㈜휴세코 일산지점 희망충전소,031-925-5199,24시간,,37.6985610237,126.7602895435,N,N,N,N,N,N,N,N,,2022-04-08
공중화장실,한울㈜서일산주유소,경기도 고양시 일산서구 법곳길 84,경기도 고양시 일산서구 법곳길 84,N,1,1,0,0,0,0,1,0,0,한울㈜서일산주유소,,13시간,,37.6652639830,126.7275917375,N,N,N,N,N,N,N,N,,2022-04-08
공중화장실,한양상가,경기도 고양시 일산서구 중앙로 1376,경기도 고양시 일산서구 중앙로 1376,N,7,4,1,0,0,0,10,1,0,포리치 몰,031-919-5857,24시간,,37.6672637278,126.7669498941,N,N,N,N,N,N,N,N,,2022-04-08
공중화장실,레이크타운,,경기도 고양시 일산서구 중앙로 1391,N,18,33,1,1,0,0,32,1,0,레이크타운 관리단,,24시간,,37.6674503647,126.7650771863,N,N,N,N,N,N,N,N,,2022-04-08
공중화장실,롯데마트 주엽점,경기도 고양시 일산서구 중앙로 1496,경기도 고양시 일산서구 중앙로 1496,N,10,14,3,1,0,1,10,3,0,롯데마트 주엽점,031-910-3321,13시간,,37.6731569387,126.7552122529,N,N,N,N,N,N,N,N,,2022-04-08
공중화장실,케이엘페트로 덕이충전소,경기도 고양시 일산서구 덕이로 300,경기도 고양시 일산서구 덕이로 300,N,1,1,0,0,0,0,2,0,0,케이엘페트로 덕이충전소,,24시간,,37.7024317483,126.7327193524,N,N,N,N,N,N,N,N,,2022-04-08
공중화장실,홈플러스 킨텍스점,경기도 고양시 일산서구 호수로 817,경기도 고양시 일산서구 호수로 817,N,8,12,0,0,0,2,19,2,0,홈플러스 킨텍스점,031-960-7182,13시간,,37.6679786706,126.7516242854,N,N,N,N,N,N,N,N,,2022-04-08
공중화장실,NH농협주유소,경기도 고양시 일산서구 대화로 362,경기도 고양시 일산서구 대화로 362,N,1,2,0,0,0,0,2,0,0,NH농협주유소,,18시간,,37.6835919434,126.7463412799,N,N,N,N,N,N,N,N,,2022-04-08
공중화장실,신일산충전소,경기도 고양시 일산서구 경의로 789,경기도 고양시 일산서구 경의로 789,N,2,2,0,0,0,0,2,0,0,신일산충전소,,24시간,,37.6879488649,126.7582740578,N,N,N,N,N,N,N,N,,2022-04-08
공중화장실,뉴서울프라자(외부),,경기도 고양시 일산서구 중앙로 1371,N,5,3,0,0,0,0,0,0,0,뉴서울프라자,031-924-8771,24시간,,37.6661974836,126.7665181825,N,N,N,N,N,N,N,N,,2022-04-08
공중화장실,뉴서울프라자(내부),,경기도 고양시 일산서구 중앙로 1371,N,2,3,0,0,0,0,3,1,0,뉴서울프라자 관리사무소,031-924-8771,12시간,,37.6661974836,126.7665181825,N,N,N,N,N,N,N,N,,2022-04-08
공중화장실,㈜한미석유 덕이동주유소,경기도 고양시 일산서구 덕이로 174,경기도 고양시 일산서구 덕이로 174,N,2,2,0,0,0,0,2,0,0,㈜한미석유 덕이동주유소,,13시간,,37.6940585163,126.7410744402,N,N,N,N,N,N,N,N,,2022-04-08
공중화장실,㈜명주 로데오주유소,경기도 고양시 일산서구 덕이로 78-7,경기도 고양시 일산서구 덕이로 78-7,N,1,2,0,0,0,0,0,0,0,㈜명주 로데오주유소,,24시간,,37.6911805494,126.7505064720,N,N,N,N,N,N,N,N,,2022-04-08
공중화장실,주엽역,경기도 고양시 일산서구 중앙로 지하 1432,경기도 고양시 일산서구 중앙로 지하 1432,N,5,4,1,1,0,1,13,1,1,주엽역,031-911-7772,21시간,,37.6704355857,126.7610450549,N,N,N,N,N,N,N,N,,2022-04-08
공중화장실,탄현역,경기도 고양시 일산서구 경의로 856,경기도 고양시 일산서구 경의로 856,N,4,9,1,0,0,0,12,1,1,한국철도공사 탄현역,031-911-1271,19시간,,37.6939148531,126.7610276057,N,N,N,N,N,N,N,N,,2022-04-08
공중화장실,일산역,경기도 고양시 일산서구 경의로 672,"경기도 고양시 일산서구 경의로 672 (일산동, 일산역)",N,8,12,1,0,0,0,20,1,1,한국철도공사 일산역,031-976-7788,19시간,,37.6821420012,126.7694459204,N,N,N,N,N,N,N,N,,2022-04-08
공중화장실,주엽어린이도서관,경기도 고양시 일산서구 주엽로 104,경기도 고양시 일산서구 주엽로 104,N,4,2,3,3,1,2,7,0,3,고양시청(고양시도서관센터),031-8075-9161,9시간,,37.6684602083,126.7565064574,N,N,N,N,N,N,N,N,,2022-04-08
공중화장실,가좌도서관,경기도 고양시 일산서구 가좌3로 16,경기도 고양시 일산서구 가좌3로 16(가좌동),N,7,9,2,1,0,1,18,2,1,가좌도서관 및 보건지소,031-8075-9380,16시간,,37.6861717209,126.7203092370,N,N,N,N,N,N,N,N,,2022-04-08
공중화장실,한뫼도서관,경기도 고양시 일산서구 탄중로 284,경기도 고양시 일산서구 탄중로 284,N,7,10,1,0,1,2,17,1,1,고양시 한뫼도서관,031-8075-9103,16시간,,37.6935498217,126.7762870179,N,N,N,N,N,N,N,N,,2022-04-08
공중화장실,대화도서관,경기도 고양시 일산서구 일산로 689,경기도 고양시 일산서구 일산로 689,N,11,13,1,1,0,2,25,1,1,고양시 대화도서관,031-8075-9126,16시간,,37.6810445495,126.7539539668,N,N,N,N,N,N,N,N,,2022-04-08
공중화장실,탄현환승 공영주차장,,경기도 고양시 일산서구 일현로 97-27,N,4,4,0,2,0,0,6,2,0,고양도시관리공사,031-929-4843,24시간,,,,N,N,N,N,N,N,N,N,,2022-04-08
공중화장실,고양체육관,경기도 고양시 일산서구 중앙로 1601,경기도 고양시 일산서구 중앙로 1601,N,56,65,6,0,0,0,79,6,0,고양도시관리공사,031-929-4800,18시간,,37.6746400996,126.7418505989,N,N,N,N,N,N,N,N,,2022-04-08
공중화장실,고양종합운동장,경기도 고양시 일산서구 중앙로 1601,경기도 고양시 일산서구 중앙로 1601,N,95,316,8,2,0,0,199,8,0,고양도시관리공사,031-929-4868,16시간,,37.6746400996,126.7418505989,N,N,N,N,N,N,N,N,,2022-04-08
공중화장실,고양인공암벽장,경기도 고양시 일산서구 중앙로 1601,경기도 고양시 일산서구 중앙로 1601,N,5,3,0,1,0,0,4,0,0,고양도시관리공사,031-929-4868,8시간,,37.6746400996,126.7418505989,N,N,N,N,N,N,N,N,,2022-04-08
공중화장실,성저파크골프장,경기도 고양시 일산서구 중앙로 1601,경기도 고양시 일산서구 중앙로 1601,N,2,1,1,1,0,0,2,2,0,고양도시관리공사,031-929-4868,9시간,,37.6746400996,126.7418505989,N,N,N,N,N,N,N,N,,2022-04-08
공중화장실,고양리틀야구장,경기도 고양시 일산서구 중앙로 1601,경기도 고양시 일산서구 중앙로 1601,N,2,2,0,0,0,0,0,0,0,고양도시관리공사,031-929-4868,12시간,,37.6746400996,126.7418505989,N,N,N,N,N,N,N,N,,2022-04-08
공중화장실,국가대표야구장,경기도 고양시 일산서구 중앙로 1601,경기도 고양시 일산서구 중앙로 1601,N,9,7,3,3,0,0,11,3,0,고양도시관리공사,031-929-4868,9시간,,37.6746400996,126.7418505989,N,N,N,N,N,N,N,N,,2022-04-08
공중화장실,킨텍스캠핑장,경기도 고양시 일산서구 킨텍스로 217-25,경기도 고양시 일산서구 킨텍스로 217-25,N,4,6,4,0,0,0,10,4,0,고양도시관리공사,031-913-1700,24시간,,37.6631253331,126.7396888048,N,N,N,N,N,N,N,N,,2022-04-08
공중화장실,고양문화의집 지하1층 화장실,경기도 고양시 일산서구 산현로 99,경기도 고양시 일산서구 산현로99,N,1,3,0,1,0,0,1,0,0,고양도시관리공사,031-913-2500,12시간,,37.6923263600,126.7722723531,N,N,N,N,N,N,N,N,,2022-04-08
공중화장실,고양문화의집 1층 화장실,경기도 고양시 일산서구 산현로 99,경기도 고양시 일산서구 산현로99,N,1,0,0,0,0,0,1,0,0,고양도시관리공사,031-911-2500,12시간,,37.6923263600,126.7722723531,N,N,N,N,N,N,N,N,,2022-04-08
공중화장실,고양문화의집 3층화장실,경기도 고양시 일산서구 산현로 99,경기도 고양시 일산서구 산현로99,N,2,3,0,1,0,0,4,0,1,고양도시관리공사,031-911-2500,12시간,,37.6923263600,126.7722723531,N,N,N,N,N,N,N,N,,2022-04-08
공중화장실,한산공원,,경기도 고양시 일산서구 덕이동 산131-7,N,1,3,1,1,0,0,7,1,0,고양시 공원관리과,031-8075-4339,24시간,,37.6960163104,126.7494325480,N,N,N,N,N,N,N,N,,2022-04-08
공중화장실,덕이공원,,경기도 고양시 일산서구 덕이동 산145-1,N,1,3,1,1,0,0,7,1,0,고양시 공원관리과,031-8075-4339,24시간,,37.7017929857,126.7543795197,N,N,N,N,N,N,N,N,,2022-04-08
공중화장실,탄현공원,경기도 고양시 일산서구 탄현로 100,경기도 고양시 일산서구 탄현동 1472,N,2,3,1,0,0,0,4,0,0,고양시 공원관리과,031-8075-4339,24시간,,37.7006593172,126.7686743561,N,N,N,N,N,N,N,N,,2022-04-08
공중화장실,국제전시장공원,,경기도 고양시 일산서구 대화동 2600-1,N,1,1,1,0,0,0,3,0,0,고양시 공원관리과,031-8075-4339,24시간,,37.6684928305,126.7416035063,N,N,N,N,N,N,N,N,,2022-04-08
공중화장실,고양시민피크닉공원,경기도 고양시 일산서구 대화로 355,경기도 고양시 일산서구 대화로 355(대화동),N,3,3,1,0,0,1,3,0,0,고양시 공원관리과,031-8075-4339,24시간,,37.6853640915,126.7486256387,N,N,N,N,N,N,N,N,,2022-04-08
공중화장실,대화공원,경기도 고양시 일산서구 강성로 203,경기도 고양시 일산서구 대화동 2201,N,1,1,0,0,0,0,1,0,0,고양시 공원관리과,031-8075-4339,24시간,,37.6742302132,126.7538974659,N,N,N,N,N,N,N,N,,2022-04-08
공중화장실,M&G프라자,경기도 고양시 덕양구 중앙로557번길 8-9,경기도 고양시 덕양구 중앙로557번길 8-9,N,8,16,0,0,0,0,16,0,0,덕양구 청소농정과,031-8075-5243,24시간,,37.6233903703,126.8343980692,N,N,N,N,N,N,N,N,,2022-04-08
공중화장실,원전주유소,경기도 고양시 덕양구 고양대로 1464,경기도 고양시 덕양구 고양대로 1464,N,1,2,0,0,0,0,1,0,0,덕양구 청소농정과,031-8075-5243,24시간,,37.6516220985,126.8460492340,N,N,N,N,N,N,N,N,,2022-04-08
공중화장실,영원주유소,경기도 고양시 덕양구 지도로 8,경기도 고양시 덕양구 지도로 8,N,2,2,0,0,0,0,2,0,0,덕양구 청소농정과,031-8075-5243,24시간,,37.6177655064,126.8247827815,N,N,N,N,N,N,N,N,,2022-04-08
공중화장실,덕양노인종합복지관,경기도 고양시 덕양구 어울림로 49,경기도 고양시 덕양구 어울림로 49,N,16,30,0,0,0,0,29,0,0,덕양구 청소농정과,031-8075-5243,24시간,,37.6484703620,126.8368835541,N,N,N,N,N,N,N,N,,2022-04-08
공중화장실,서강프라자자,경기도 고양시 덕양구 고양대로1384번길 7-5,경기도 고양시 덕양구 고양대로1384번길 7-5,N,10,10,0,0,0,0,10,0,0,덕양구 청소농정과,031-8075-5243,24시간,,37.6538029939,126.8379131096,N,N,N,N,N,N,N,N,,2022-04-08
공중화장실,능곡전화국,경기도 고양시 덕양구 지도로 7,경기도 고양시 덕양구 지도로 7,N,8,8,1,0,0,0,8,1,0,덕양구 청소농정과,031-8075-5243,24시간,,37.6177710165,126.8241708520,N,N,N,N,N,N,N,N,,2022-04-08
공중화장실,남정시티프라자 6차,경기도 고양시 덕양구 무원로6번길 36,경기도 고양시 덕양구 무원로6번길 36,N,22,24,1,0,0,0,29,1,0,덕양구 청소농정과,031-8075-5243,24시간,,37.6140396710,126.8337109484,N,N,N,N,N,N,N,N,,2022-04-08
공중화장실,대경프라자,경기도 고양시 덕양구 은빛로 41,경기도 고양시 덕양구 은빛로 41,N,20,20,1,0,0,0,20,1,0,덕양구 청소농정과,031-8075-5243,24시간,,37.6381791701,126.8324413484,N,N,N,N,N,N,N,N,,2022-04-08
공중화장실,킨텍스,,경기도 고양시 일산서구 한류월드로 408,N,30,30,5,0,0,0,30,5,0,덕양구 청소농정과,031-8075-5243,24시간,,,,N,N,N,N,N,N,N,N,,2022-04-08
공중화장실,건영캐스빌 오피스텔,경기도 고양시 덕양구 화신로 259,경기도 고양시 덕양구 화신로 259,N,2,2,1,0,0,0,2,0,0,덕양구 청소농정과,031-8075-5243,24시간,,37.6304095823,126.8324201893,N,N,N,N,N,N,N,N,,2022-04-08
공중화장실,영프라자빌딩(화정),경기도 고양시 덕양구 화신로272번길 58,경기도 고양시 덕양구 화신로272번길 58,N,4,4,1,0,0,0,3,1,0,덕양구 청소농정과,031-8075-5243,24시간,,37.6336616181,126.8321077585,N,N,N,N,N,N,N,N,,2022-04-08
공중화장실,동원텔상가,경기도 고양시 덕양구 화정로 47,경기도 고양시 덕양구 화정로 47,N,2,2,0,0,0,0,4,0,0,덕양구 청소농정과,031-8075-5243,24시간,,37.6351988992,126.8314026394,N,N,N,N,N,N,N,N,,2022-04-08
공중화장실,자유제일충전소,경기도 고양시 덕양구 자유로 489,경기도 고양시 덕양구 자유로 489,N,2,3,0,0,0,0,3,0,0,덕양구 청소농정과,031-8075-5243,24시간,,37.6040296011,126.8217121762,N,N,N,N,N,N,N,N,,2022-04-08
공중화장실,능곡주유소,경기도 고양시 덕양구 토당로 104,경기도 고양시 덕양구 토당로 104,N,2,2,0,0,0,0,2,0,0,덕양구 청소농정과,031-8075-5243,24시간,,37.6244926286,126.8175033719,N,N,N,N,N,N,N,N,,2022-04-08
공중화장실,원흥주유소,경기도 고양시 덕양구 서오릉로 712,경기도 고양시 덕양구 서오릉로 712,N,2,2,0,0,0,0,2,0,0,덕양구 청소농정과,031-8075-5243,24시간,,37.6400406844,126.8659861519,N,N,N,N,N,N,N,N,,2022-04-08
공중화장실,한솔주유소,경기도 고양시 덕양구 통일로 1015,경기도 고양시 덕양구 통일로 1015,N,1,2,0,0,0,0,2,0,0,덕양구 청소농정과,031-8075-5243,24시간,,37.7064534683,126.8565720148,N,N,N,N,N,N,N,N,,2022-04-08
공중화장실,씨네마플러스,경기도 고양시 덕양구 화중로104번길 28,경기도 고양시 덕양구 화중로104번길 28,N,2,3,2,0,0,0,3,1,0,덕양구 청소농정과,031-8075-5243,24시간,,37.6357226373,126.8331660248,N,N,N,N,N,N,N,N,,2022-04-08
공중화장실,아이프라자,경기도 고양시 덕양구 충장로 134,경기도 고양시 덕양구 충장로 134,N,3,2,0,0,0,0,3,0,0,덕양구 청소농정과,031-8075-5243,24시간,,37.6243759676,126.8349558866,N,N,N,N,N,N,N,N,,2022-04-08
공중화장실,센트럴빌딩,경기도 고양시 덕양구 충장로 2,경기도 고양시 덕양구 충장로 2,N,1,2,2,0,0,0,1,0,0,덕양구 청소농정과,031-8075-5243,24시간,,37.6131336535,126.8344781697,N,N,N,N,N,N,N,N,,2022-04-08
공중화장실,신영프라자,경기도 고양시 덕양구 충장로 18,경기도 고양시 덕양구 충장로 18,N,2,2,2,0,0,0,2,0,0,덕양구 청소농정과,031-8075-5243,24시간,,37.6143953293,126.8344442639,N,N,N,N,N,N,N,N,,2022-04-08
공중화장실,세화주유소,경기도 고양시 덕양구 통일로 1020,경기도 고양시 덕양구 통일로 1020,N,1,1,1,0,0,0,2,1,0,덕양구 청소농정과,031-8075-5243,24시간,,37.7070506635,126.8569979506,N,N,N,N,N,N,N,N,,2022-04-08
공중화장실,평진 LPG충전소,경기도 고양시 덕양구 호국로 1945,경기도 고양시 덕양구 호국로 1945,N,1,2,1,0,0,0,1,1,0,덕양구 청소농정과,031-8075-5243,24시간,,37.7178851102,126.9196497693,N,N,N,N,N,N,N,N,,2022-04-08
공중화장실,명성LPG충전소,경기도 고양시 덕양구 호국로 1634,경기도 고양시 덕양구 호국로 1634,N,1,2,1,0,0,0,2,1,0,덕양구 청소농정과,031-8075-5243,24시간,,37.6972692161,126.9028750488,N,N,N,N,N,N,N,N,,2022-04-08
공중화장실,그린가스충전소,경기도 고양시 덕양구 호국로 992,경기도 고양시 덕양구 호국로 992,N,2,3,1,0,0,0,2,1,0,덕양구 청소농정과,031-8075-5243,24시간,,37.6706670479,126.8509280682,N,N,N,N,N,N,N,N,,2022-04-08
공중화장실,비전프라자,경기도 고양시 덕양구 고양대로1384번길 7-11,경기도 고양시 덕양구 고양대로 1384번길 7-11,N,10,10,1,0,0,0,10,1,0,덕양구 청소농정과,031-8075-5243,24시간,,37.6537062698,126.8383447582,N,N,N,N,N,N,N,N,,2022-04-08
공중화장실,대덕생태공원,,경기도 고양시 덕양구 현천동 768,N,2,2,1,0,0,0,2,1,0,고양시 공원관리과,031-8075-4322,24시간,,37.5884740479,126.8398993307,N,N,N,N,N,N,N,N,,2022-04-08
공중화장실,강제공원,경기도 고양시 일산서구 강성로 126,경기도 고양시 일산서구 강성로 126,N,1,1,1,0,0,0,1,1,0,고양시 공원관리과,031-8075-4322,24시간,,37.6725502166,126.7633713390,N,N,N,N,N,N,N,N,,2022-04-08
공중화장실,중산체육공원(중앙),경기도 고양시 일산동구 중산로 217,경기도 고양시 일산동구 중산로 217,N,2,2,1,0,0,0,2,1,0,고양시 공원관리과,031-8075-4322,24시간,,37.6914989219,126.7799024563,N,N,N,N,N,N,N,N,,2022-04-08
공중화장실,중산체육공원(운동장),경기도 고양시 일산동구 중산로 217,경기도 고양시 일산동구 중산로 217,N,2,2,1,0,0,0,2,1,0,고양시 공원관리과,031-8075-4322,24시간,,37.6914989219,126.7799024563,N,N,N,N,N,N,N,N,,2022-04-08
